{
"type": "FeatureCollection",
"name": "changchun-line-6-stops",
"crs": { "type": "name", "properties": { "name": "urn:ogc:def:crs:OGC:1.3:CRS84" } },
"features": [
{ "type": "Feature", "properties": { "full_id": "n5871203045", "osm_id": "5871203045", "osm_type": "node", "railway": "stop", "access": "", "description": "", "name": "Changchun West Railway Station", "name:en": "Changchun West Railway Station", "public_transport": "stop_position", "subway": "yes", "station": "" }, "geometry": { "type": "Point", "coordinates": [ 125.1950168, 43.8741006 ] } },
{ "type": "Feature", "properties": { "full_id": null, "osm_id": null, "osm_type": null, "railway": null, "access": null, "description": null, "name": "Guigu Square", "name:en": "Guigu Square", "public_transport": null, "subway": null, "station": null }, "geometry": { "type": "Point", "coordinates": [ 125.256091355530756, 43.822336238358211 ] } },
{ "type": "Feature", "properties": { "full_id": null, "osm_id": null, "osm_type": null, "railway": null, "access": null, "description": null, "name": "Shuangfeng", "name:en": "Shuangfeng", "public_transport": null, "subway": null, "station": null }, "geometry": { "type": "Point", "coordinates": [ 125.178492389040173, 43.865128636357007 ] } },
{ "type": "Feature", "properties": { "full_id": null, "osm_id": null, "osm_type": null, "railway": null, "access": null, "description": null, "name": "Weishan Rd.", "name:en": "Weishan Rd.", "public_transport": null, "subway": null, "station": null }, "geometry": { "type": "Point", "coordinates": [ 125.269928514238202, 43.810710382887024 ] } },
{ "type": "Feature", "properties": { "full_id": null, "osm_id": null, "osm_type": null, "railway": null, "access": null, "description": null, "name": "Zhujiatun", "name:en": "Zhujiatun", "public_transport": null, "subway": null, "station": null }, "geometry": { "type": "Point", "coordinates": [ 125.208649209583029, 43.868991290635215 ] } },
{ "type": "Feature", "properties": { "full_id": null, "osm_id": null, "osm_type": null, "railway": null, "access": null, "description": null, "name": "Daishan Park", "name:en": "Daishan Park", "public_transport": null, "subway": null, "station": null }, "geometry": { "type": "Point", "coordinates": [ 125.219402875968441, 43.853155790906548 ] } },
{ "type": "Feature", "properties": { "full_id": null, "osm_id": null, "osm_type": null, "railway": null, "access": null, "description": null, "name": "Feiyue Square", "name:en": "Feiyue Square", "public_transport": null, "subway": null, "station": null }, "geometry": { "type": "Point", "coordinates": [ 125.223970764261566, 43.847133645543295 ] } },
{ "type": "Feature", "properties": { "full_id": null, "osm_id": null, "osm_type": null, "railway": null, "access": null, "description": null, "name": "Eurasia Shopping Mall", "name:en": "Eurasia Shopping Mall", "public_transport": null, "subway": null, "station": null }, "geometry": { "type": "Point", "coordinates": [ 125.233194118928168, 43.836884705462772 ] } },
{ "type": "Feature", "properties": { "full_id": null, "osm_id": null, "osm_type": null, "railway": null, "access": null, "description": null, "name": "Guanggu St.", "name:en": "Guanggu St.", "public_transport": null, "subway": null, "station": null }, "geometry": { "type": "Point", "coordinates": [ 125.243821027565744, 43.830120451103362 ] } },
{ "type": "Feature", "properties": { "full_id": null, "osm_id": null, "osm_type": null, "railway": null, "access": null, "description": null, "name": "South Fourth Ring Rd.", "name:en": "South Fourth Ring Rd.", "public_transport": null, "subway": null, "station": null }, "geometry": { "type": "Point", "coordinates": [ 125.269993045455266, 43.801961793603098 ] } },
{ "type": "Feature", "properties": { "full_id": null, "osm_id": null, "osm_type": null, "railway": null, "access": null, "description": null, "name": "Qianjin St. South", "name:en": "Qianjin St. South", "public_transport": null, "subway": null, "station": null }, "geometry": { "type": "Point", "coordinates": [ 125.289278660610151, 43.797649725491887 ] } },
{ "type": "Feature", "properties": { "full_id": null, "osm_id": null, "osm_type": null, "railway": null, "access": null, "description": null, "name": "Nanhu Middle St.", "name:en": "Nanhu Middle St.", "public_transport": null, "subway": null, "station": null }, "geometry": { "type": "Point", "coordinates": [ 125.298972171286721, 43.797640506746589 ] } },
{ "type": "Feature", "properties": { "full_id": null, "osm_id": null, "osm_type": null, "railway": null, "access": null, "description": null, "name": "Xinming St.", "name:en": "Xinming St.", "public_transport": null, "subway": null, "station": null }, "geometry": { "type": "Point", "coordinates": [ 125.306794276668612, 43.797677381727773 ] } },
{ "type": "Feature", "properties": { "full_id": null, "osm_id": null, "osm_type": null, "railway": null, "access": null, "description": null, "name": "Huaqing Rd.", "name:en": "Huaqing Rd.", "public_transport": null, "subway": null, "station": null }, "geometry": { "type": "Point", "coordinates": [ 125.320051984744467, 43.797556385695792 ] } },
{ "type": "Feature", "properties": { "full_id": null, "osm_id": null, "osm_type": null, "railway": null, "access": null, "description": null, "name": "Nanxi Wetland Park", "name:en": "Nanxi Wetland Park", "public_transport": null, "subway": null, "station": null }, "geometry": { "type": "Point", "coordinates": [ 125.350517633253745, 43.797800682446088 ] } },
{ "type": "Feature", "properties": { "full_id": null, "osm_id": null, "osm_type": null, "railway": null, "access": null, "description": null, "name": "Fuzhi Ave.", "name:en": "Fuzhi Ave.", "public_transport": null, "subway": null, "station": null }, "geometry": { "type": "Point", "coordinates": [ 125.359598097367908, 43.784877153887479 ] } },
{ "type": "Feature", "properties": { "full_id": null, "osm_id": null, "osm_type": null, "railway": null, "access": null, "description": null, "name": "Wujiadian", "name:en": "Wujiadian", "public_transport": null, "subway": null, "station": null }, "geometry": { "type": "Point", "coordinates": [ 125.371803716136753, 43.775091455758236 ] } },
{ "type": "Feature", "properties": { "full_id": null, "osm_id": null, "osm_type": null, "railway": null, "access": null, "description": null, "name": "Xincheng St.", "name:en": "Xincheng St.", "public_transport": null, "subway": null, "station": null }, "geometry": { "type": "Point", "coordinates": [ 125.388701676260084, 43.770113333299641 ] } },
{ "type": "Feature", "properties": { "full_id": null, "osm_id": null, "osm_type": null, "railway": null, "access": null, "description": null, "name": "Yinghua St.", "name:en": "Yinghua St.", "public_transport": null, "subway": null, "station": null }, "geometry": { "type": "Point", "coordinates": [ 125.402216356860635, 43.768583021580881 ] } },
{ "type": "Feature", "properties": { "full_id": null, "osm_id": null, "osm_type": null, "railway": null, "access": null, "description": null, "name": "Juye St.", "name:en": "Juye St.", "public_transport": null, "subway": null, "station": null }, "geometry": { "type": "Point", "coordinates": [ 125.415196350234169, 43.767108022333872 ] } },
{ "type": "Feature", "properties": { "full_id": null, "osm_id": null, "osm_type": null, "railway": null, "access": null, "description": null, "name": "The Museum of Jilin Province", "name:en": "The Museum of Jilin Province", "public_transport": null, "subway": null, "station": null }, "geometry": { "type": "Point", "coordinates": [ 125.429052124410546, 43.766932866173285 ] } },
{ "type": "Feature", "properties": { "full_id": null, "osm_id": null, "osm_type": null, "railway": null, "access": null, "description": null, "name": "Changchun Movie Wonderland", "name:en": "Changchun Movie Wonderland", "public_transport": null, "subway": null, "station": null }, "geometry": { "type": "Point", "coordinates": [ 125.44393348400088, 43.768456263833066 ] } }
]
}
