{
"type": "FeatureCollection",
"name": "chengdu-line-8-phase-2-stops",
"crs": { "type": "name", "properties": { "name": "urn:ogc:def:crs:OGC:1.3:CRS84" } },
"features": [
{ "type": "Feature", "properties": { "full_id": "n6594651945", "osm_id": "6594651945", "osm_type": "node", "name": "Lianhua", "name:en": "Lianhua", "public_transport": "stop_position", "railway": "stop", "subway": "", "name:zh": "莲花", "train": "yes", "station": "", "network": "", "monorail": "", "access": "", "description": "", "indoor": "" }, "geometry": { "type": "Point", "coordinates": [ 103.9767831, 30.5480032 ] } },
{ "type": "Feature", "properties": { "full_id": null, "osm_id": null, "osm_type": null, "name": "Name not decided", "name:en": null, "public_transport": null, "railway": null, "subway": null, "name:zh": null, "train": null, "station": null, "network": null, "monorail": null, "access": null, "description": null, "indoor": null }, "geometry": { "type": "Point", "coordinates": [ 104.149630138026978, 30.690701040509051 ] } },
{ "type": "Feature", "properties": { "full_id": null, "osm_id": null, "osm_type": null, "name": "Name not decided", "name:en": null, "public_transport": null, "railway": null, "subway": null, "name:zh": null, "train": null, "station": null, "network": null, "monorail": null, "access": null, "description": null, "indoor": null }, "geometry": { "type": "Point", "coordinates": [ 104.155152200014825, 30.696686903572139 ] } },
{ "type": "Feature", "properties": { "full_id": null, "osm_id": null, "osm_type": null, "name": "Name not decided", "name:en": null, "public_transport": null, "railway": null, "subway": null, "name:zh": null, "train": null, "station": null, "network": null, "monorail": null, "access": null, "description": null, "indoor": null }, "geometry": { "type": "Point", "coordinates": [ 104.161323438403457, 30.70296388554344 ] } },
{ "type": "Feature", "properties": { "full_id": null, "osm_id": null, "osm_type": null, "name": "Name not decided", "name:en": null, "public_transport": null, "railway": null, "subway": null, "name:zh": null, "train": null, "station": null, "network": null, "monorail": null, "access": null, "description": null, "indoor": null }, "geometry": { "type": "Point", "coordinates": [ 104.16882139379166, 30.716830755182126 ] } },
{ "type": "Feature", "properties": { "full_id": null, "osm_id": null, "osm_type": null, "name": "Name not decided", "name:en": null, "public_transport": null, "railway": null, "subway": null, "name:zh": null, "train": null, "station": null, "network": null, "monorail": null, "access": null, "description": null, "indoor": null }, "geometry": { "type": "Point", "coordinates": [ 104.177946066211561, 30.7193318609038 ] } },
{ "type": "Feature", "properties": { "full_id": null, "osm_id": null, "osm_type": null, "name": "Name not decided", "name:en": null, "public_transport": null, "railway": null, "subway": null, "name:zh": null, "train": null, "station": null, "network": null, "monorail": null, "access": null, "description": null, "indoor": null }, "geometry": { "type": "Point", "coordinates": [ 104.183130382770926, 30.719327192451402 ] } }
]
}
