{
"type": "FeatureCollection",
"name": "fuzhou-line-4-phase-1-stops",
"crs": { "type": "name", "properties": { "name": "urn:ogc:def:crs:OGC:1.3:CRS84" } },
"features": [
{ "type": "Feature", "properties": { "full_id": null, "osm_id": null, "osm_type": null, "construction": null, "name": "Hongtang Road", "name:en": null, "railway": null, "subway": null, "wikidata": null, "wikipedia": null, "public_transport": null, "station": null, "train": null, "alt_name": null }, "geometry": { "type": "Point", "coordinates": [ 119.245042720963937, 26.077058876048813 ] } },
{ "type": "Feature", "properties": { "full_id": null, "osm_id": null, "osm_type": null, "construction": null, "name": "West Yangqiao Road", "name:en": null, "railway": null, "subway": null, "wikidata": null, "wikipedia": null, "public_transport": null, "station": null, "train": null, "alt_name": null }, "geometry": { "type": "Point", "coordinates": [ 119.255711309461503, 26.079399524876447 ] } },
{ "type": "Feature", "properties": { "full_id": null, "osm_id": null, "osm_type": null, "construction": null, "name": "Fuzhou University North Gate", "name:en": null, "railway": null, "subway": null, "wikidata": null, "wikipedia": null, "public_transport": null, "station": null, "train": null, "alt_name": null }, "geometry": { "type": "Point", "coordinates": [ 119.267805810796645, 26.081453679763339 ] } },
{ "type": "Feature", "properties": { "full_id": null, "osm_id": null, "osm_type": null, "construction": null, "name": "Xi'erhuan Road", "name:en": null, "railway": null, "subway": null, "wikidata": null, "wikipedia": null, "public_transport": null, "station": null, "train": null, "alt_name": null }, "geometry": { "type": "Point", "coordinates": [ 119.277729372383931, 26.085080142914187 ] } },
{ "type": "Feature", "properties": { "full_id": null, "osm_id": null, "osm_type": null, "construction": null, "name": "North Baima Road", "name:en": null, "railway": null, "subway": null, "wikidata": null, "wikipedia": null, "public_transport": null, "station": null, "train": null, "alt_name": null }, "geometry": { "type": "Point", "coordinates": [ 119.284516400000967, 26.087659600000361 ] } },
{ "type": "Feature", "properties": { "full_id": null, "osm_id": null, "osm_type": null, "construction": null, "name": "Dongjiekou", "name:en": null, "railway": null, "subway": null, "wikidata": null, "wikipedia": null, "public_transport": null, "station": null, "train": null, "alt_name": null }, "geometry": { "type": "Point", "coordinates": [ 119.294541282297573, 26.089170782103473 ] } },
{ "type": "Feature", "properties": { "full_id": null, "osm_id": null, "osm_type": null, "construction": null, "name": "Fujian Provincial Hospital", "name:en": null, "railway": null, "subway": null, "wikidata": null, "wikipedia": null, "public_transport": null, "station": null, "train": null, "alt_name": null }, "geometry": { "type": "Point", "coordinates": [ 119.303406945535343, 26.089982669080751 ] } },
{ "type": "Feature", "properties": { "full_id": null, "osm_id": null, "osm_type": null, "construction": null, "name": "Datou", "name:en": null, "railway": null, "subway": null, "wikidata": null, "wikipedia": null, "public_transport": null, "station": null, "train": null, "alt_name": null }, "geometry": { "type": "Point", "coordinates": [ 119.312545548345028, 26.09101241886653 ] } },
{ "type": "Feature", "properties": { "full_id": null, "osm_id": null, "osm_type": null, "construction": null, "name": "Yuefengzhen North", "name:en": null, "railway": null, "subway": null, "wikidata": null, "wikipedia": null, "public_transport": null, "station": null, "train": null, "alt_name": null }, "geometry": { "type": "Point", "coordinates": [ 119.326229364064829, 26.09601106888972 ] } },
{ "type": "Feature", "properties": { "full_id": null, "osm_id": null, "osm_type": null, "construction": null, "name": "Chibian", "name:en": null, "railway": null, "subway": null, "wikidata": null, "wikipedia": null, "public_transport": null, "station": null, "train": null, "alt_name": null }, "geometry": { "type": "Point", "coordinates": [ 119.33649308611102, 26.096036275884483 ] } },
{ "type": "Feature", "properties": { "full_id": null, "osm_id": null, "osm_type": null, "construction": null, "name": "Huagong Road", "name:en": null, "railway": null, "subway": null, "wikidata": null, "wikipedia": null, "public_transport": null, "station": null, "train": null, "alt_name": null }, "geometry": { "type": "Point", "coordinates": [ 119.347601679072739, 26.091641005077808 ] } },
{ "type": "Feature", "properties": { "full_id": null, "osm_id": null, "osm_type": null, "construction": null, "name": "East Fuxin Road", "name:en": null, "railway": null, "subway": null, "wikidata": null, "wikipedia": null, "public_transport": null, "station": null, "train": null, "alt_name": null }, "geometry": { "type": "Point", "coordinates": [ 119.347677961144569, 26.085157703122999 ] } },
{ "type": "Feature", "properties": { "full_id": null, "osm_id": null, "osm_type": null, "construction": null, "name": "Qianheng Road (Qianyu)", "name:en": null, "railway": null, "subway": null, "wikidata": null, "wikipedia": null, "public_transport": null, "station": null, "train": null, "alt_name": null }, "geometry": { "type": "Point", "coordinates": [ 119.345703143796911, 26.075694369338937 ] } },
{ "type": "Feature", "properties": { "full_id": null, "osm_id": null, "osm_type": null, "construction": null, "name": "Lianyang Road", "name:en": null, "railway": null, "subway": null, "wikidata": null, "wikipedia": null, "public_transport": null, "station": null, "train": null, "alt_name": null }, "geometry": { "type": "Point", "coordinates": [ 119.342473968480718, 26.069010492651405 ] } },
{ "type": "Feature", "properties": { "full_id": null, "osm_id": null, "osm_type": null, "construction": null, "name": "Aofeng Road", "name:en": null, "railway": null, "subway": null, "wikidata": null, "wikipedia": null, "public_transport": null, "station": null, "train": null, "alt_name": null }, "geometry": { "type": "Point", "coordinates": [ 119.339694672174474, 26.057199670450022 ] } },
{ "type": "Feature", "properties": { "full_id": null, "osm_id": null, "osm_type": null, "construction": null, "name": "Jiangbiancun", "name:en": null, "railway": null, "subway": null, "wikidata": null, "wikipedia": null, "public_transport": null, "station": null, "train": null, "alt_name": null }, "geometry": { "type": "Point", "coordinates": [ 119.346497356136297, 26.042405269648903 ] } },
{ "type": "Feature", "properties": { "full_id": null, "osm_id": null, "osm_type": null, "construction": null, "name": "Puxia", "name:en": null, "railway": null, "subway": null, "wikidata": null, "wikipedia": null, "public_transport": null, "station": null, "train": null, "alt_name": null }, "geometry": { "type": "Point", "coordinates": [ 119.348677071662749, 26.030007742080159 ] } },
{ "type": "Feature", "properties": { "full_id": null, "osm_id": null, "osm_type": null, "construction": null, "name": "Fuzhou Strait International Conference & Exhibition Center", "name:en": null, "railway": null, "subway": null, "wikidata": null, "wikipedia": null, "public_transport": null, "station": null, "train": null, "alt_name": null }, "geometry": { "type": "Point", "coordinates": [ 119.352926681543266, 26.023747038276046 ] } },
{ "type": "Feature", "properties": { "full_id": null, "osm_id": null, "osm_type": null, "construction": null, "name": "Lianjiangcun", "name:en": null, "railway": null, "subway": null, "wikidata": null, "wikipedia": null, "public_transport": null, "station": null, "train": null, "alt_name": null }, "geometry": { "type": "Point", "coordinates": [ 119.354389432213296, 26.014375499481947 ] } },
{ "type": "Feature", "properties": { "full_id": null, "osm_id": null, "osm_type": null, "construction": null, "name": "Chengmen", "name:en": null, "railway": null, "subway": null, "wikidata": null, "wikipedia": null, "public_transport": null, "station": null, "train": null, "alt_name": null }, "geometry": { "type": "Point", "coordinates": [ 119.35536476256901, 25.999123823860423 ] } },
{ "type": "Feature", "properties": { "full_id": null, "osm_id": null, "osm_type": null, "construction": null, "name": "Luozhouzhen", "name:en": null, "railway": null, "subway": null, "wikidata": null, "wikipedia": null, "public_transport": null, "station": null, "train": null, "alt_name": null }, "geometry": { "type": "Point", "coordinates": [ 119.346310039140192, 25.989282527578005 ] } }
]
}
