{
"type": "FeatureCollection",
"name": "hangzhou-line-1-phase-1-stops",
"crs": { "type": "name", "properties": { "name": "urn:ogc:def:crs:OGC:1.3:CRS84" } },
"features": [
{ "type": "Feature", "properties": { "full_id": "n2933008044", "osm_id": "2933008044", "osm_type": "node", "name": "East Railway Station", "name:en": "East Railway Station", "public_transport": "stop_position", "railway": "stop", "subway": "yes", "ref": "", "name:zh": "", "station": "", "wikidata": "", "wikipedia": "", "access": "", "description": "", "construction:railway": "", "train": "", "electrified": "", "gauge": "" }, "geometry": { "type": "Point", "coordinates": [ 120.2081436, 30.2935911 ] } },
{ "type": "Feature", "properties": { "full_id": "n2933008084", "osm_id": "2933008084", "osm_type": "node", "name": "Binhe Road", "name:en": "Binhe Road", "public_transport": "stop_position", "railway": "stop", "subway": "yes", "ref": "", "name:zh": "", "station": "", "wikidata": "", "wikipedia": "", "access": "", "description": "", "construction:railway": "", "train": "", "electrified": "", "gauge": "" }, "geometry": { "type": "Point", "coordinates": [ 120.213195, 30.2015763 ] } },
{ "type": "Feature", "properties": { "full_id": "n2933008082", "osm_id": "2933008082", "osm_type": "node", "name": "Wujiang Road", "name:en": "Wujiang Road", "public_transport": "stop_position", "railway": "stop", "subway": "yes", "ref": "", "name:zh": "", "station": "", "wikidata": "", "wikipedia": "", "access": "", "description": "", "construction:railway": "", "train": "", "electrified": "", "gauge": "" }, "geometry": { "type": "Point", "coordinates": [ 120.1866627, 30.238911 ] } },
{ "type": "Feature", "properties": { "full_id": "n2933008086", "osm_id": "2933008086", "osm_type": "node", "name": "Jinjiang", "name:en": "Jinjiang", "public_transport": "stop_position", "railway": "stop", "subway": "yes", "ref": "", "name:zh": "", "station": "", "wikidata": "", "wikipedia": "", "access": "", "description": "", "construction:railway": "", "train": "", "electrified": "", "gauge": "" }, "geometry": { "type": "Point", "coordinates": [ 120.1929597, 30.23339 ] } },
{ "type": "Feature", "properties": { "full_id": "n2933008085", "osm_id": "2933008085", "osm_type": "node", "name": "Xixing", "name:en": "Xixing", "public_transport": "stop_position", "railway": "stop", "subway": "yes", "ref": "", "name:zh": "", "station": "", "wikidata": "", "wikipedia": "", "access": "", "description": "", "construction:railway": "", "train": "", "electrified": "", "gauge": "" }, "geometry": { "type": "Point", "coordinates": [ 120.2162427, 30.189756 ] } },
{ "type": "Feature", "properties": { "full_id": "n2933013374", "osm_id": "2933013374", "osm_type": "node", "name": "Binkang Road", "name:en": "Binkang Road", "public_transport": "stop_position", "railway": "stop", "subway": "yes", "ref": "", "name:zh": "", "station": "", "wikidata": "", "wikipedia": "", "access": "", "description": "", "construction:railway": "", "train": "", "electrified": "", "gauge": "" }, "geometry": { "type": "Point", "coordinates": [ 120.2266734, 30.1862001 ] } },
{ "type": "Feature", "properties": { "full_id": "n2933013373", "osm_id": "2933013373", "osm_type": "node", "name": "Xianghu", "name:en": "Xianghu", "public_transport": "stop_position", "railway": "stop;switch", "subway": "yes", "ref": "", "name:zh": "", "station": "", "wikidata": "", "wikipedia": "", "access": "", "description": "", "construction:railway": "", "train": "", "electrified": "", "gauge": "" }, "geometry": { "type": "Point", "coordinates": [ 120.2302055, 30.1697051 ] } },
{ "type": "Feature", "properties": { "full_id": "n2914306277", "osm_id": "2914306277", "osm_type": "node", "name": "Pengbu", "name:en": "Pengbu", "public_transport": "stop_position", "railway": "stop", "subway": "yes", "ref": "", "name:zh": "", "station": "", "wikidata": "", "wikipedia": "", "access": "", "description": "", "construction:railway": "", "train": "", "electrified": "", "gauge": "" }, "geometry": { "type": "Point", "coordinates": [ 120.2195945, 30.2967556 ] } },
{ "type": "Feature", "properties": { "full_id": "n2919734589", "osm_id": "2919734589", "osm_type": "node", "name": "Wengmei", "name:en": "Wengmei", "public_transport": "stop_position", "railway": "", "subway": "yes", "ref": "", "name:zh": "", "station": "", "wikidata": "", "wikipedia": "", "access": "", "description": "", "construction:railway": "", "train": "", "electrified": "", "gauge": "" }, "geometry": { "type": "Point", "coordinates": [ 120.2905904, 30.3674342 ] } },
{ "type": "Feature", "properties": { "full_id": "n2919736776", "osm_id": "2919736776", "osm_type": "node", "name": "Linping", "name:en": "Linping", "public_transport": "stop_position", "railway": "stop", "subway": "yes", "ref": "", "name:zh": "", "station": "", "wikidata": "", "wikipedia": "", "access": "", "description": "", "construction:railway": "", "train": "", "electrified": "", "gauge": "" }, "geometry": { "type": "Point", "coordinates": [ 120.2995173, 30.4079462 ] } },
{ "type": "Feature", "properties": { "full_id": "n2933033133", "osm_id": "2933033133", "osm_type": "node", "name": "Qiaosi", "name:en": "Qiaosi", "public_transport": "stop_position", "railway": "stop", "subway": "yes", "ref": "", "name:zh": "", "station": "", "wikidata": "", "wikipedia": "", "access": "", "description": "", "construction:railway": "", "train": "", "electrified": "", "gauge": "" }, "geometry": { "type": "Point", "coordinates": [ 120.2808091, 30.3492788 ] } },
{ "type": "Feature", "properties": { "full_id": "n2933033135", "osm_id": "2933033135", "osm_type": "node", "name": "Nanyuan", "name:en": "Nanyuan", "public_transport": "stop_position", "railway": "", "subway": "yes", "ref": "", "name:zh": "", "station": "", "wikidata": "", "wikipedia": "", "access": "", "description": "", "construction:railway": "", "train": "", "electrified": "", "gauge": "" }, "geometry": { "type": "Point", "coordinates": [ 120.2979474, 30.3974919 ] } },
{ "type": "Feature", "properties": { "full_id": "n2933033134", "osm_id": "2933033134", "osm_type": "node", "name": "Yuhang High-Railway Station", "name:en": "Yuhang High-Railway Station", "public_transport": "stop_position", "railway": "stop", "subway": "yes", "ref": "", "name:zh": "", "station": "", "wikidata": "", "wikipedia": "", "access": "", "description": "", "construction:railway": "", "train": "", "electrified": "", "gauge": "" }, "geometry": { "type": "Point", "coordinates": [ 120.293387, 30.3849901 ] } },
{ "type": "Feature", "properties": { "full_id": "n6503404528", "osm_id": "6503404528", "osm_type": "node", "name": "Chengzhan", "name:en": "Chengzhan", "public_transport": "stop_position", "railway": "stop", "subway": "yes", "ref": "", "name:zh": "", "station": "", "wikidata": "", "wikipedia": "", "access": "", "description": "", "construction:railway": "", "train": "", "electrified": "", "gauge": "" }, "geometry": { "type": "Point", "coordinates": [ 120.176427, 30.2469881 ] } },
{ "type": "Feature", "properties": { "full_id": "n6503404536", "osm_id": "6503404536", "osm_type": "node", "name": "Ding'an Road", "name:en": "Ding'an Road", "public_transport": "stop_position", "railway": "stop", "subway": "yes", "ref": "", "name:zh": "", "station": "", "wikidata": "", "wikipedia": "", "access": "", "description": "", "construction:railway": "", "train": "", "electrified": "", "gauge": "" }, "geometry": { "type": "Point", "coordinates": [ 120.1633052, 30.2482899 ] } },
{ "type": "Feature", "properties": { "full_id": "n6505798565", "osm_id": "6505798565", "osm_type": "node", "name": "Jiubao", "name:en": "Jiubao", "public_transport": "stop_position", "railway": "stop", "subway": "yes", "ref": "", "name:zh": "", "station": "", "wikidata": "", "wikipedia": "", "access": "", "description": "", "construction:railway": "", "train": "", "electrified": "", "gauge": "" }, "geometry": { "type": "Point", "coordinates": [ 120.2618019, 30.3102796 ] } },
{ "type": "Feature", "properties": { "full_id": "n6503404553", "osm_id": "6503404553", "osm_type": "node", "name": "Longxiangqiao", "name:en": "Longxiangqiao", "public_transport": "stop_position", "railway": "stop", "subway": "yes", "ref": "", "name:zh": "", "station": "", "wikidata": "", "wikipedia": "", "access": "", "description": "", "construction:railway": "", "train": "", "electrified": "", "gauge": "" }, "geometry": { "type": "Point", "coordinates": [ 120.1594696, 30.2571152 ] } },
{ "type": "Feature", "properties": { "full_id": "n7828890834", "osm_id": "7828890834", "osm_type": "node", "name": "West Lake Cultural Square", "name:en": "West Lake Cultural Square", "public_transport": "stop_position", "railway": "stop", "subway": "yes", "ref": "", "name:zh": "", "station": "", "wikidata": "", "wikipedia": "", "access": "", "description": "", "construction:railway": "", "train": "", "electrified": "", "gauge": "" }, "geometry": { "type": "Point", "coordinates": [ 120.1608965, 30.2826047 ] } },
{ "type": "Feature", "properties": { "full_id": "n6009978892", "osm_id": "6009978892", "osm_type": "node", "name": "Qibao", "name:en": "Qibao", "public_transport": "stop_position", "railway": "stop", "subway": "yes", "ref": "", "name:zh": "", "station": "", "wikidata": "", "wikipedia": "", "access": "", "description": "", "construction:railway": "", "train": "", "electrified": "", "gauge": "" }, "geometry": { "type": "Point", "coordinates": [ 120.2362243, 30.3022393 ] } },
{ "type": "Feature", "properties": { "full_id": "n5441693215", "osm_id": "5441693215", "osm_type": "node", "name": "Fengqi Road", "name:en": "Fengqi Road", "public_transport": "stop_position", "railway": "stop", "subway": "yes", "ref": "", "name:zh": "", "station": "", "wikidata": "", "wikipedia": "", "access": "", "description": "", "construction:railway": "", "train": "", "electrified": "", "gauge": "" }, "geometry": { "type": "Point", "coordinates": [ 120.1589509, 30.2654633 ] } },
{ "type": "Feature", "properties": { "full_id": "n6009978808", "osm_id": "6009978808", "osm_type": "node", "name": "Coach Center", "name:en": "Coach Center", "public_transport": "stop_position", "railway": "stop", "subway": "yes", "ref": "2", "name:zh": "", "station": "", "wikidata": "", "wikipedia": "", "access": "", "description": "", "construction:railway": "", "train": "", "electrified": "", "gauge": "" }, "geometry": { "type": "Point", "coordinates": [ 120.2740773, 30.3135193 ] } },
{ "type": "Feature", "properties": { "full_id": "n6505799749", "osm_id": "6505799749", "osm_type": "node", "name": "Jiangling Road", "name:en": "Jiangling Road", "public_transport": "stop_position", "railway": "stop", "subway": "yes", "ref": "", "name:zh": "", "station": "", "wikidata": "", "wikipedia": "", "access": "", "description": "", "construction:railway": "", "train": "", "electrified": "", "gauge": "" }, "geometry": { "type": "Point", "coordinates": [ 120.2121931, 30.2116407 ] } },
{ "type": "Feature", "properties": { "full_id": "n6505799690", "osm_id": "6505799690", "osm_type": "node", "name": "South Qiaosi", "name:en": "South Qiaosi", "public_transport": "stop_position", "railway": "", "subway": "yes", "ref": "", "name:zh": "", "station": "", "wikidata": "", "wikipedia": "", "access": "", "description": "", "construction:railway": "", "train": "", "electrified": "", "gauge": "" }, "geometry": { "type": "Point", "coordinates": [ 120.286257, 30.3297378 ] } },
{ "type": "Feature", "properties": { "full_id": "n6505799694", "osm_id": "6505799694", "osm_type": "node", "name": "Wulin Square", "name:en": "Wulin Square", "public_transport": "stop_position", "railway": "stop", "subway": "yes", "ref": "", "name:zh": "", "station": "", "wikidata": "", "wikipedia": "", "access": "", "description": "", "construction:railway": "", "train": "", "electrified": "", "gauge": "" }, "geometry": { "type": "Point", "coordinates": [ 120.1594138, 30.2742222 ] } },
{ "type": "Feature", "properties": { "full_id": "n7412924680", "osm_id": "7412924680", "osm_type": "node", "name": "Jiuhe Road", "name:en": "Jiuhe Road", "public_transport": "stop_position", "railway": "stop", "subway": "yes", "ref": "", "name:zh": "", "station": "", "wikidata": "", "wikipedia": "", "access": "", "description": "", "construction:railway": "", "train": "", "electrified": "", "gauge": "" }, "geometry": { "type": "Point", "coordinates": [ 120.2485551, 30.3082923 ] } },
{ "type": "Feature", "properties": { "full_id": "n7436573618", "osm_id": "7436573618", "osm_type": "node", "name": "Zhanongkou", "name:en": "Zhalongkou", "public_transport": "stop_position", "railway": "stop", "subway": "yes", "ref": "", "name:zh": "", "station": "", "wikidata": "", "wikipedia": "", "access": "", "description": "", "construction:railway": "", "train": "", "electrified": "", "gauge": "" }, "geometry": { "type": "Point", "coordinates": [ 120.1873905, 30.2867322 ] } },
{ "type": "Feature", "properties": { "full_id": "n7436573621", "osm_id": "7436573621", "osm_type": "node", "name": "Datieguan", "name:en": "Datieguan", "public_transport": "stop_position", "railway": "stop", "subway": "yes", "ref": "", "name:zh": "", "station": "", "wikidata": "", "wikipedia": "", "access": "", "description": "", "construction:railway": "", "train": "", "electrified": "", "gauge": "" }, "geometry": { "type": "Point", "coordinates": [ 120.1722829, 30.2879407 ] } },
{ "type": "Feature", "properties": { "full_id": "n7436573622", "osm_id": "7436573622", "osm_type": "node", "name": "Gaosha Road", "name:en": "Gaosha Road", "public_transport": "stop_position", "railway": "stop", "subway": "yes", "ref": "", "name:zh": "", "station": "", "wikidata": "", "wikipedia": "", "access": "", "description": "", "construction:railway": "", "train": "", "electrified": "", "gauge": "" }, "geometry": { "type": "Point", "coordinates": [ 120.3307546, 30.3117536 ] } },
{ "type": "Feature", "properties": { "full_id": "n6580622382", "osm_id": "6580622382", "osm_type": "node", "name": "Wenze Road", "name:en": "Wenze Road", "public_transport": "stop_position", "railway": "stop", "subway": "yes", "ref": "", "name:zh": "", "station": "", "wikidata": "", "wikipedia": "", "access": "", "description": "", "construction:railway": "", "train": "", "electrified": "", "gauge": "" }, "geometry": { "type": "Point", "coordinates": [ 120.3451943, 30.3124919 ] } },
{ "type": "Feature", "properties": { "full_id": "n2933018389", "osm_id": "2933018389", "osm_type": "node", "name": "West Xiasha", "name:en": "West Xiasha", "public_transport": "stop_position", "railway": "stop", "subway": "yes", "ref": "", "name:zh": "", "station": "", "wikidata": "", "wikipedia": "", "access": "", "description": "", "construction:railway": "", "train": "", "electrified": "", "gauge": "" }, "geometry": { "type": "Point", "coordinates": [ 120.3079859, 30.3123338 ] } },
{ "type": "Feature", "properties": { "full_id": "n7436573624", "osm_id": "7436573624", "osm_type": "node", "name": "Jinshahu", "name:en": "Jinshahu", "public_transport": "stop_position", "railway": "stop", "subway": "yes", "ref": "", "name:zh": "", "station": "", "wikidata": "", "wikipedia": "", "access": "", "description": "", "construction:railway": "", "train": "", "electrified": "", "gauge": "" }, "geometry": { "type": "Point", "coordinates": [ 120.3210378, 30.3116564 ] } }
]
}
