{
"type": "FeatureCollection",
"name": "hefei-line-4-southern-extension-stops",
"crs": { "type": "name", "properties": { "name": "urn:ogc:def:crs:OGC:1.3:CRS84" } },
"features": [
{ "type": "Feature", "properties": { "full_id": null, "osm_id": null, "osm_type": null, "name": "Fuxing Road", "name:en": null, "public_transport": null, "subway": null, "railway": null, "station": null, "wikidata": null, "alt_name": null, "alt_name:en": null, "name:zh": null, "access": null, "description": null }, "geometry": { "type": "Point", "coordinates": [ 117.139522891024754, 31.817783288804627 ] } },
{ "type": "Feature", "properties": { "full_id": null, "osm_id": null, "osm_type": null, "name": "Yonghe Road", "name:en": null, "public_transport": null, "subway": null, "railway": null, "station": null, "wikidata": null, "alt_name": null, "alt_name:en": null, "name:zh": null, "access": null, "description": null }, "geometry": { "type": "Point", "coordinates": [ 117.139583770867659, 31.805162352945647 ] } },
{ "type": "Feature", "properties": { "full_id": null, "osm_id": null, "osm_type": null, "name": "WanFoshan Road", "name:en": null, "public_transport": null, "subway": null, "railway": null, "station": null, "wikidata": null, "alt_name": null, "alt_name:en": null, "name:zh": null, "access": null, "description": null }, "geometry": { "type": "Point", "coordinates": [ 117.132243240350689, 31.784323990108014 ] } },
{ "type": "Feature", "properties": { "full_id": null, "osm_id": null, "osm_type": null, "name": "Xiaolongshan Road", "name:en": null, "public_transport": null, "subway": null, "railway": null, "station": null, "wikidata": null, "alt_name": null, "alt_name:en": null, "name:zh": null, "access": null, "description": null }, "geometry": { "type": "Point", "coordinates": [ 117.104099406258825, 31.780358204602976 ] } },
{ "type": "Feature", "properties": { "full_id": null, "osm_id": null, "osm_type": null, "name": "Tongluozhai Road", "name:en": null, "public_transport": null, "subway": null, "railway": null, "station": null, "wikidata": null, "alt_name": null, "alt_name:en": null, "name:zh": null, "access": null, "description": null }, "geometry": { "type": "Point", "coordinates": [ 117.086010352061791, 31.76942194242142 ] } },
{ "type": "Feature", "properties": { "full_id": null, "osm_id": null, "osm_type": null, "name": "Yuanheng Ave. (name may change)", "name:en": null, "public_transport": null, "subway": null, "railway": null, "station": null, "wikidata": null, "alt_name": null, "alt_name:en": null, "name:zh": null, "access": null, "description": null }, "geometry": { "type": "Point", "coordinates": [ 117.089239849230395, 31.757938866422961 ] } },
{ "type": "Feature", "properties": { "full_id": null, "osm_id": null, "osm_type": null, "name": "Jingangtai Road ï¼ˆname and location may change)", "name:en": null, "public_transport": null, "subway": null, "railway": null, "station": null, "wikidata": null, "alt_name": null, "alt_name:en": null, "name:zh": null, "access": null, "description": null }, "geometry": { "type": "Point", "coordinates": [ 117.082726818764314, 31.745979737169339 ] } }
]
}
