{
"type": "FeatureCollection",
"name": "hefei-line-6-phase-1-stops",
"crs": { "type": "name", "properties": { "name": "urn:ogc:def:crs:OGC:1.3:CRS84" } },
"features": [
{ "type": "Feature", "properties": { "full_id": null, "osm_id": null, "osm_type": null, "name": "Fenglehelu (Fushanlu)", "name:en": null, "public_transport": null, "subway": null, "railway": null, "station": null, "wikidata": null, "alt_name": null, "alt_name:en": null, "name:zh": null, "access": null, "description": null }, "geometry": { "type": "Point", "coordinates": [ 117.152160221695965, 31.82277814326714 ] } },
{ "type": "Feature", "properties": { "full_id": null, "osm_id": null, "osm_type": null, "name": "Shushannan", "name:en": null, "public_transport": null, "subway": null, "railway": null, "station": null, "wikidata": null, "alt_name": null, "alt_name:en": null, "name:zh": null, "access": null, "description": null }, "geometry": { "type": "Point", "coordinates": [ 117.17679760612188, 31.833705236189182 ] } },
{ "type": "Feature", "properties": { "full_id": null, "osm_id": null, "osm_type": null, "name": "Kexue Ave.", "name:en": null, "public_transport": null, "subway": null, "railway": null, "station": null, "wikidata": null, "alt_name": null, "alt_name:en": null, "name:zh": null, "access": null, "description": null }, "geometry": { "type": "Point", "coordinates": [ 117.197373275559045, 31.834602532117795 ] } },
{ "type": "Feature", "properties": { "full_id": null, "osm_id": null, "osm_type": null, "name": "Hefei West Railway Station", "name:en": null, "public_transport": null, "subway": null, "railway": null, "station": null, "wikidata": null, "alt_name": null, "alt_name:en": null, "name:zh": null, "access": null, "description": null }, "geometry": { "type": "Point", "coordinates": [ 117.211068037590678, 31.835509614214541 ] } },
{ "type": "Feature", "properties": { "full_id": null, "osm_id": null, "osm_type": null, "name": "Dongzhilu", "name:en": null, "public_transport": null, "subway": null, "railway": null, "station": null, "wikidata": null, "alt_name": null, "alt_name:en": null, "name:zh": null, "access": null, "description": null }, "geometry": { "type": "Point", "coordinates": [ 117.240324991778238, 31.83264606243576 ] } },
{ "type": "Feature", "properties": { "full_id": null, "osm_id": null, "osm_type": null, "name": "Feixilu", "name:en": null, "public_transport": null, "subway": null, "railway": null, "station": null, "wikidata": null, "alt_name": null, "alt_name:en": null, "name:zh": null, "access": null, "description": null }, "geometry": { "type": "Point", "coordinates": [ 117.252306915381411, 31.832015713394259 ] } },
{ "type": "Feature", "properties": { "full_id": null, "osm_id": null, "osm_type": null, "name": "Wangjiangdonglu", "name:en": null, "public_transport": null, "subway": null, "railway": null, "station": null, "wikidata": null, "alt_name": null, "alt_name:en": null, "name:zh": null, "access": null, "description": null }, "geometry": { "type": "Point", "coordinates": [ 117.265186452296433, 31.830659451694032 ] } },
{ "type": "Feature", "properties": { "full_id": null, "osm_id": null, "osm_type": null, "name": "Huizhou Ave.", "name:en": null, "public_transport": null, "subway": null, "railway": null, "station": null, "wikidata": null, "alt_name": null, "alt_name:en": null, "name:zh": null, "access": null, "description": null }, "geometry": { "type": "Point", "coordinates": [ 117.279458908854878, 31.833377527244956 ] } },
{ "type": "Feature", "properties": { "full_id": null, "osm_id": null, "osm_type": null, "name": "Zhugang", "name:en": null, "public_transport": null, "subway": null, "railway": null, "station": null, "wikidata": null, "alt_name": null, "alt_name:en": null, "name:zh": null, "access": null, "description": null }, "geometry": { "type": "Point", "coordinates": [ 117.295996881400512, 31.834112884511363 ] } },
{ "type": "Feature", "properties": { "full_id": null, "osm_id": null, "osm_type": null, "name": "Yininglu", "name:en": null, "public_transport": null, "subway": null, "railway": null, "station": null, "wikidata": null, "alt_name": null, "alt_name:en": null, "name:zh": null, "access": null, "description": null }, "geometry": { "type": "Point", "coordinates": [ 117.318611818565287, 31.827137776872917 ] } },
{ "type": "Feature", "properties": { "full_id": null, "osm_id": null, "osm_type": null, "name": "Gantanglyu (name may change)", "name:en": null, "public_transport": null, "subway": null, "railway": null, "station": null, "wikidata": null, "alt_name": null, "alt_name:en": null, "name:zh": null, "access": null, "description": null }, "geometry": { "type": "Point", "coordinates": [ 117.328690957916407, 31.829012493851877 ] } },
{ "type": "Feature", "properties": { "full_id": null, "osm_id": null, "osm_type": null, "name": "Zhenxingnanlu", "name:en": null, "public_transport": null, "subway": null, "railway": null, "station": null, "wikidata": null, "alt_name": null, "alt_name:en": null, "name:zh": null, "access": null, "description": null }, "geometry": { "type": "Point", "coordinates": [ 117.349605609718111, 31.844436693138103 ] } },
{ "type": "Feature", "properties": { "full_id": null, "osm_id": null, "osm_type": null, "name": "Longgang", "name:en": null, "public_transport": null, "subway": null, "railway": null, "station": null, "wikidata": null, "alt_name": null, "alt_name:en": null, "name:zh": null, "access": null, "description": null }, "geometry": { "type": "Point", "coordinates": [ 117.363475012132582, 31.840309647078069 ] } },
{ "type": "Feature", "properties": { "full_id": null, "osm_id": null, "osm_type": null, "name": "Zhangshanlu", "name:en": null, "public_transport": null, "subway": null, "railway": null, "station": null, "wikidata": null, "alt_name": null, "alt_name:en": null, "name:zh": null, "access": null, "description": null }, "geometry": { "type": "Point", "coordinates": [ 117.373196016795461, 31.838375624413295 ] } },
{ "type": "Feature", "properties": { "full_id": null, "osm_id": null, "osm_type": null, "name": "Zhongyoufang", "name:en": null, "public_transport": null, "subway": null, "railway": null, "station": null, "wikidata": null, "alt_name": null, "alt_name:en": null, "name:zh": null, "access": null, "description": null }, "geometry": { "type": "Point", "coordinates": [ 117.380070627988431, 31.841095412429681 ] } },
{ "type": "Feature", "properties": { "full_id": null, "osm_id": null, "osm_type": null, "name": "Dazhonglu", "name:en": null, "public_transport": null, "subway": null, "railway": null, "station": null, "wikidata": null, "alt_name": null, "alt_name:en": null, "name:zh": null, "access": null, "description": null }, "geometry": { "type": "Point", "coordinates": [ 117.392803797928863, 31.842062327565888 ] } },
{ "type": "Feature", "properties": { "full_id": null, "osm_id": null, "osm_type": null, "name": "Dongfeng Ave.", "name:en": null, "public_transport": null, "subway": null, "railway": null, "station": null, "wikidata": null, "alt_name": null, "alt_name:en": null, "name:zh": null, "access": null, "description": null }, "geometry": { "type": "Point", "coordinates": [ 117.411873665776895, 31.840888879697953 ] } }
]
}
