{
"type": "FeatureCollection",
"name": "malaga-lines-1-2-stops",
"crs": { "type": "name", "properties": { "name": "urn:ogc:def:crs:OGC:1.3:CRS84" } },
"features": [
{ "type": "Feature", "properties": { "full_id": "n1625341605", "osm_id": "1625341605", "osm_type": "node", "name": "El Cónsul", "operator": "Metro de Málaga", "platforms": "", "public_transport": "station", "railway": "station", "station": "subway", "wheelchair": "", "wikidata": "Q5846161", "train": "yes", "subway": "", "network": "", "railway:turnout_side": "" }, "geometry": { "type": "Point", "coordinates": [ -4.4840075, 36.7173414 ] } },
{ "type": "Feature", "properties": { "full_id": "n1625341615", "osm_id": "1625341615", "osm_type": "node", "name": "La Unión", "operator": "Metro de Málaga", "platforms": "2", "public_transport": "station", "railway": "station", "station": "subway", "wheelchair": "", "wikidata": "Q5846540", "train": "", "subway": "yes", "network": "", "railway:turnout_side": "" }, "geometry": { "type": "Point", "coordinates": [ -4.4401039, 36.7106902 ] } },
{ "type": "Feature", "properties": { "full_id": "n1625341623", "osm_id": "1625341623", "osm_type": "node", "name": "Andalucía Tech", "operator": "Metro de Málaga", "platforms": "", "public_transport": "station", "railway": "station", "station": "subway", "wheelchair": "", "wikidata": "", "train": "yes", "subway": "", "network": "CTMAM", "railway:turnout_side": "" }, "geometry": { "type": "Point", "coordinates": [ -4.4944136, 36.7188267 ] } },
{ "type": "Feature", "properties": { "full_id": "n1625341635", "osm_id": "1625341635", "osm_type": "node", "name": "Portada Alta", "operator": "Metro de Málaga", "platforms": "2", "public_transport": "station", "railway": "station", "station": "subway", "wheelchair": "yes", "wikidata": "Q5846956", "train": "", "subway": "", "network": "", "railway:turnout_side": "" }, "geometry": { "type": "Point", "coordinates": [ -4.4532671, 36.7193702 ] } },
{ "type": "Feature", "properties": { "full_id": "n1912826078", "osm_id": "1912826078", "osm_type": "node", "name": "Clínico", "operator": "Metro de Málaga", "platforms": "", "public_transport": "station", "railway": "station", "station": "subway", "wheelchair": "yes", "wikidata": "Q5846064", "train": "yes", "subway": "", "network": "", "railway:turnout_side": "" }, "geometry": { "type": "Point", "coordinates": [ -4.4786253, 36.716578 ] } },
{ "type": "Feature", "properties": { "full_id": "n3762485517", "osm_id": "3762485517", "osm_type": "node", "name": "La Luz - La Paz", "operator": "Metro de Málaga", "platforms": "2", "public_transport": "station", "railway": "station", "station": "subway", "wheelchair": "yes", "wikidata": "Q5846493", "train": "", "subway": "yes", "network": "", "railway:turnout_side": "" }, "geometry": { "type": "Point", "coordinates": [ -4.4513131, 36.6954164 ] } },
{ "type": "Feature", "properties": { "full_id": "n3762485520", "osm_id": "3762485520", "osm_type": "node", "name": "Puerta Blanca", "operator": "Metro de Málaga", "platforms": "2", "public_transport": "station", "railway": "station", "station": "subway", "wheelchair": "yes", "wikidata": "Q5402461", "train": "", "subway": "yes", "network": "", "railway:turnout_side": "" }, "geometry": { "type": "Point", "coordinates": [ -4.4559168, 36.6917962 ] } },
{ "type": "Feature", "properties": { "full_id": "n4344674995", "osm_id": "4344674995", "osm_type": "node", "name": "Palacio de los Deportes", "operator": "Metro de Málaga", "platforms": "", "public_transport": "station", "railway": "station", "station": "subway", "wheelchair": "yes", "wikidata": "Q5846867", "train": "", "subway": "", "network": "", "railway:turnout_side": "" }, "geometry": { "type": "Point", "coordinates": [ -4.4583141, 36.6845619 ] } },
{ "type": "Feature", "properties": { "full_id": "n4408155456", "osm_id": "4408155456", "osm_type": "node", "name": "Barbarela", "operator": "Metro de Málaga", "platforms": "", "public_transport": "station", "railway": "station", "station": "subway", "wheelchair": "yes", "wikidata": "Q5845773", "train": "", "subway": "", "network": "", "railway:turnout_side": "" }, "geometry": { "type": "Point", "coordinates": [ -4.4460448, 36.7115832 ] } },
{ "type": "Feature", "properties": { "full_id": "n4408159190", "osm_id": "4408159190", "osm_type": "node", "name": "Carranque", "operator": "Metro de Málaga", "platforms": "", "public_transport": "station", "railway": "station", "station": "subway", "wheelchair": "yes", "wikidata": "Q5845970", "train": "", "subway": "yes", "network": "", "railway:turnout_side": "" }, "geometry": { "type": "Point", "coordinates": [ -4.4490899, 36.7186193 ] } },
{ "type": "Feature", "properties": { "full_id": "n4409530066", "osm_id": "4409530066", "osm_type": "node", "name": "La Isla", "operator": "Metro de Málaga", "platforms": "", "public_transport": "station", "railway": "station", "station": "subway", "wheelchair": "yes", "wikidata": "Q5846489", "train": "", "subway": "", "network": "", "railway:turnout_side": "" }, "geometry": { "type": "Point", "coordinates": [ -4.4354552, 36.7082948 ] } },
{ "type": "Feature", "properties": { "full_id": "n4409535923", "osm_id": "4409535923", "osm_type": "node", "name": "Princesa - Huelin", "operator": "Metro de Málaga", "platforms": "", "public_transport": "station", "railway": "station", "station": "subway", "wheelchair": "yes", "wikidata": "", "train": "", "subway": "", "network": "CTMAM", "railway:turnout_side": "" }, "geometry": { "type": "Point", "coordinates": [ -4.4402493, 36.7041038 ] } },
{ "type": "Feature", "properties": { "full_id": "n4409558424", "osm_id": "4409558424", "osm_type": "node", "name": "El Torcal", "operator": "Metro de Málaga", "platforms": "", "public_transport": "station", "railway": "station", "station": "subway", "wheelchair": "yes", "wikidata": "Q5846191", "train": "", "subway": "", "network": "", "railway:turnout_side": "" }, "geometry": { "type": "Point", "coordinates": [ -4.4460882, 36.6995262 ] } },
{ "type": "Feature", "properties": { "full_id": "101", "osm_id": null, "osm_type": null, "name": "El Perchel", "operator": null, "platforms": null, "public_transport": null, "railway": null, "station": null, "wheelchair": null, "wikidata": null, "train": null, "subway": null, "network": null, "railway:turnout_side": null }, "geometry": { "type": "Point", "coordinates": [ -4.432364584105422, 36.712662199637748 ] } },
{ "type": "Feature", "properties": { "full_id": "n1625341600", "osm_id": "1625341600", "osm_type": "node", "name": "Ciudad de la Justicia", "operator": "Metro de Málaga", "platforms": "2", "public_transport": "station", "railway": "station", "station": "subway", "wheelchair": "yes", "wikidata": "Q5846061", "train": "", "subway": "", "network": "", "railway:turnout_side": "" }, "geometry": { "type": "Point", "coordinates": [ -4.4633269, 36.7180395 ] } },
{ "type": "Feature", "properties": { "full_id": "n4943984613", "osm_id": "4943984613", "osm_type": "node", "name": "Universidad", "operator": "Metro de Málaga", "platforms": "", "public_transport": "station", "railway": "station", "station": "subway", "wheelchair": "yes", "wikidata": "", "train": "yes", "subway": "", "network": "", "railway:turnout_side": "" }, "geometry": { "type": "Point", "coordinates": [ -4.4722531, 36.7170474 ] } },
{ "type": "Feature", "properties": { "full_id": "n2897360350", "osm_id": "2897360350", "osm_type": "node", "name": "Paraninfo", "operator": "Metro de Málaga", "platforms": "", "public_transport": "station", "railway": "station", "station": "subway", "wheelchair": "", "wikidata": "", "train": "yes", "subway": "", "network": "", "railway:turnout_side": "" }, "geometry": { "type": "Point", "coordinates": [ -4.4887674, 36.7180137 ] } }
]
}
