{
"type": "FeatureCollection",
"name": "nanjing-line-4-phase-1-stops",
"crs": { "type": "name", "properties": { "name": "urn:ogc:def:crs:OGC:1.3:CRS84" } },
"features": [
{ "type": "Feature", "properties": { "full_id": "n7820899047", "osm_id": "7820899047", "osm_type": "node", "public_transport": "", "railway": "", "subway": "", "construction": "", "construction:public_transport": "station", "construction:railway": "station", "construction:station": "subway", "construction:subway": "yes", "name": "Lengtangcun" }, "geometry": { "type": "Point", "coordinates": [ 108.4247484, 22.7569343 ] } },
{ "type": "Feature", "properties": { "full_id": null, "osm_id": null, "osm_type": null, "public_transport": null, "railway": null, "subway": null, "construction": null, "construction:public_transport": null, "construction:railway": null, "construction:station": null, "construction:subway": null, "name": "Longgang" }, "geometry": { "type": "Point", "coordinates": [ 108.461599399286897, 22.766140100014532 ] } },
{ "type": "Feature", "properties": { "full_id": null, "osm_id": null, "osm_type": null, "public_transport": null, "railway": null, "subway": null, "construction": null, "construction:public_transport": null, "construction:railway": null, "construction:station": null, "construction:subway": null, "name": "Qingpingpo" }, "geometry": { "type": "Point", "coordinates": [ 108.447790025526274, 22.761743248104832 ] } },
{ "type": "Feature", "properties": { "full_id": null, "osm_id": null, "osm_type": null, "public_transport": null, "railway": null, "subway": null, "construction": null, "construction:public_transport": null, "construction:railway": null, "construction:station": null, "construction:subway": null, "name": "Wuxiang Railway Station (location may change)" }, "geometry": { "type": "Point", "coordinates": [ 108.432527023959153, 22.758209691928464 ] } },
{ "type": "Feature", "properties": { "full_id": null, "osm_id": null, "osm_type": null, "public_transport": null, "railway": null, "subway": null, "construction": null, "construction:public_transport": null, "construction:railway": null, "construction:station": null, "construction:subway": null, "name": "Liangqingyu" }, "geometry": { "type": "Point", "coordinates": [ 108.412602476519027, 22.755360679590073 ] } },
{ "type": "Feature", "properties": { "full_id": null, "osm_id": null, "osm_type": null, "public_transport": null, "railway": null, "subway": null, "construction": null, "construction:public_transport": null, "construction:railway": null, "construction:station": null, "construction:subway": null, "name": "Liangqingdaqiao South" }, "geometry": { "type": "Point", "coordinates": [ 108.404580282730819, 22.755883370455276 ] } },
{ "type": "Feature", "properties": { "full_id": null, "osm_id": null, "osm_type": null, "public_transport": null, "railway": null, "subway": null, "construction": null, "construction:public_transport": null, "construction:railway": null, "construction:station": null, "construction:subway": null, "name": "Sports Center East" }, "geometry": { "type": "Point", "coordinates": [ 108.395065216976391, 22.763382432585651 ] } },
{ "type": "Feature", "properties": { "full_id": null, "osm_id": null, "osm_type": null, "public_transport": null, "railway": null, "subway": null, "construction": null, "construction:public_transport": null, "construction:railway": null, "construction:station": null, "construction:subway": null, "name": "Feilonglu" }, "geometry": { "type": "Point", "coordinates": [ 108.382269141700064, 22.769006874525196 ] } },
{ "type": "Feature", "properties": { "full_id": null, "osm_id": null, "osm_type": null, "public_transport": null, "railway": null, "subway": null, "construction": null, "construction:public_transport": null, "construction:railway": null, "construction:station": null, "construction:subway": null, "name": "Zongbujidi" }, "geometry": { "type": "Point", "coordinates": [ 108.3720999575972, 22.770590819284767 ] } },
{ "type": "Feature", "properties": { "full_id": null, "osm_id": null, "osm_type": null, "public_transport": null, "railway": null, "subway": null, "construction": null, "construction:public_transport": null, "construction:railway": null, "construction:station": null, "construction:subway": null, "name": "Yuxianglu" }, "geometry": { "type": "Point", "coordinates": [ 108.356914756416344, 22.77119513023419 ] } },
{ "type": "Feature", "properties": { "full_id": null, "osm_id": null, "osm_type": null, "public_transport": null, "railway": null, "subway": null, "construction": null, "construction:public_transport": null, "construction:railway": null, "construction:station": null, "construction:subway": null, "name": "Wuxiangling" }, "geometry": { "type": "Point", "coordinates": [ 108.331792931242063, 22.763563078584966 ] } },
{ "type": "Feature", "properties": { "full_id": null, "osm_id": null, "osm_type": null, "public_transport": null, "railway": null, "subway": null, "construction": null, "construction:public_transport": null, "construction:railway": null, "construction:station": null, "construction:subway": null, "name": "Jinxiang Ave." }, "geometry": { "type": "Point", "coordinates": [ 108.318862576260571, 22.763498789666148 ] } },
{ "type": "Feature", "properties": { "full_id": null, "osm_id": null, "osm_type": null, "public_transport": null, "railway": null, "subway": null, "construction": null, "construction:public_transport": null, "construction:railway": null, "construction:station": null, "construction:subway": null, "name": "Dashatian" }, "geometry": { "type": "Point", "coordinates": [ 108.312811987865913, 22.763565654733288 ] } },
{ "type": "Feature", "properties": { "full_id": null, "osm_id": null, "osm_type": null, "public_transport": null, "railway": null, "subway": null, "construction": null, "construction:public_transport": null, "construction:railway": null, "construction:station": null, "construction:subway": null, "name": "Tongyuanlu" }, "geometry": { "type": "Point", "coordinates": [ 108.292865836843845, 22.76135966455271 ] } },
{ "type": "Feature", "properties": { "full_id": null, "osm_id": null, "osm_type": null, "public_transport": null, "railway": null, "subway": null, "construction": null, "construction:public_transport": null, "construction:railway": null, "construction:station": null, "construction:subway": null, "name": "Jinyanglu" }, "geometry": { "type": "Point", "coordinates": [ 108.27753710250704, 22.763457560560951 ] } },
{ "type": "Feature", "properties": { "full_id": null, "osm_id": null, "osm_type": null, "public_transport": null, "railway": null, "subway": null, "construction": null, "construction:public_transport": null, "construction:railway": null, "construction:station": null, "construction:subway": null, "name": "Nahong Overpass" }, "geometry": { "type": "Point", "coordinates": [ 108.267430312821517, 22.763502649703334 ] } },
{ "type": "Feature", "properties": { "full_id": null, "osm_id": null, "osm_type": null, "public_transport": null, "railway": null, "subway": null, "construction": null, "construction:public_transport": null, "construction:railway": null, "construction:station": null, "construction:subway": null, "name": "Nalicun" }, "geometry": { "type": "Point", "coordinates": [ 108.254889824219788, 22.763579918799067 ] } },
{ "type": "Feature", "properties": { "full_id": null, "osm_id": null, "osm_type": null, "public_transport": null, "railway": null, "subway": null, "construction": null, "construction:public_transport": null, "construction:railway": null, "construction:station": null, "construction:subway": null, "name": "Hongyunlu (new)" }, "geometry": { "type": "Point", "coordinates": [ 108.240451108746072, 22.767654626616704 ] } }
]
}
