{
"type": "FeatureCollection",
"name": "istanbul-m8-stops",
"crs": { "type": "name", "properties": { "name": "urn:ogc:def:crs:OGC:1.3:CRS84" } },
"features": [
{ "type": "Feature", "properties": { "full_id": "n6513129437", "osm_id": "6513129437", "osm_type": "node", "name": "Parseller", "railway": "construction", "constructi": "station", "public_tra": null, "subway": null, "train": null, "network": null, "station": null, "wheelchair": null }, "geometry": { "type": "Point", "coordinates": [ 29.1527388, 41.0312427 ] } },
{ "type": "Feature", "properties": { "full_id": "n6513129456", "osm_id": "6513129456", "osm_type": "node", "name": "Huzur", "railway": "construction", "constructi": "station", "public_tra": null, "subway": null, "train": null, "network": null, "station": null, "wheelchair": null }, "geometry": { "type": "Point", "coordinates": [ 29.1593832, 41.0228566 ] } },
{ "type": "Feature", "properties": { "full_id": "n6932388157", "osm_id": "6932388157", "osm_type": "node", "name": "MODOKO-KEYAP", "railway": "construction", "constructi": null, "public_tra": null, "subway": null, "train": null, "network": null, "station": null, "wheelchair": null }, "geometry": { "type": "Point", "coordinates": [ 29.1618759, 41.007186 ] } },
{ "type": "Feature", "properties": { "full_id": "n6932388169", "osm_id": "6932388169", "osm_type": "node", "name": "İmes", "railway": "construction", "constructi": null, "public_tra": null, "subway": null, "train": null, "network": null, "station": null, "wheelchair": null }, "geometry": { "type": "Point", "coordinates": [ 29.1559416, 41.0003329 ] } },
{ "type": "Feature", "properties": { "full_id": "n6932388177", "osm_id": "6932388177", "osm_type": "node", "name": "Mevlana", "railway": "construction", "constructi": null, "public_tra": null, "subway": null, "train": null, "network": null, "station": null, "wheelchair": null }, "geometry": { "type": "Point", "coordinates": [ 29.1533813, 40.9921566 ] } },
{ "type": "Feature", "properties": { "full_id": "n6932391790", "osm_id": "6932391790", "osm_type": "node", "name": "Kayışdağı", "railway": "construction", "constructi": null, "public_tra": null, "subway": null, "train": null, "network": null, "station": null, "wheelchair": null }, "geometry": { "type": "Point", "coordinates": [ 29.1376037, 40.9848597 ] } },
{ "type": "Feature", "properties": { "full_id": "n6932391800", "osm_id": "6932391800", "osm_type": "node", "name": "İçerenköy", "railway": "construction", "constructi": null, "public_tra": null, "subway": null, "train": null, "network": null, "station": null, "wheelchair": null }, "geometry": { "type": "Point", "coordinates": [ 29.1260613, 40.9790203 ] } },
{ "type": "Feature", "properties": { "full_id": "n6932391829", "osm_id": "6932391829", "osm_type": "node", "name": "Küçükbakkalköy", "railway": "construction", "constructi": null, "public_tra": null, "subway": null, "train": null, "network": null, "station": null, "wheelchair": null }, "geometry": { "type": "Point", "coordinates": [ 29.112143, 40.9785341 ] } },
{ "type": "Feature", "properties": { "full_id": "n6934009752", "osm_id": "6934009752", "osm_type": "node", "name": "Ayşe Kadın", "railway": "construction", "constructi": null, "public_tra": null, "subway": null, "train": null, "network": null, "station": null, "wheelchair": null }, "geometry": { "type": "Point", "coordinates": [ 29.0868364, 40.9668367 ] } },
{ "type": "Feature", "properties": { "full_id": "n6934009766", "osm_id": "6934009766", "osm_type": "node", "name": "Ali Emin Paşa", "railway": "construction", "constructi": null, "public_tra": null, "subway": null, "train": null, "network": null, "station": null, "wheelchair": null }, "geometry": { "type": "Point", "coordinates": [ 29.0928183, 40.961292 ] } }
]
}
