{
"type": "FeatureCollection",
"name": "lanzhou-line-1-phase-1-stops",
"crs": { "type": "name", "properties": { "name": "urn:ogc:def:crs:OGC:1.3:CRS84" } },
"features": [
{ "type": "Feature", "properties": { "full_id": null, "osm_id": null, "osm_type": null, "name": "Provincial Government", "name:en": null, "public_transport": null, "subway": null, "access": null, "description": null, "railway": null, "alt_name": null }, "geometry": { "type": "Point", "coordinates": [ 103.824066037288887, 36.058903048930794 ] } },
{ "type": "Feature", "properties": { "full_id": "n7038782320", "osm_id": "7038782320", "osm_type": "node", "name": "Jiaojiawan", "name:en": "Jiaojiawan", "public_transport": "stop_position", "subway": "yes", "access": "", "description": "", "railway": "", "alt_name": "" }, "geometry": { "type": "Point", "coordinates": [ 103.9070795, 36.0390319 ] } },
{ "type": "Feature", "properties": { "full_id": "n7038782318", "osm_id": "7038782318", "osm_type": "node", "name": "Gongxingdun", "name:en": "Gongxingdun", "public_transport": "stop_position", "subway": "yes", "access": "", "description": "", "railway": "", "alt_name": "" }, "geometry": { "type": "Point", "coordinates": [ 103.8936517, 36.039524 ] } },
{ "type": "Feature", "properties": { "full_id": "n7038782322", "osm_id": "7038782322", "osm_type": "node", "name": "South Shen'an Bridge", "name:en": "South Shen'an Bridge", "public_transport": "stop_position", "subway": "yes", "access": "", "description": "", "railway": "", "alt_name": "" }, "geometry": { "type": "Point", "coordinates": [ 103.6746846, 36.0904412 ] } },
{ "type": "Feature", "properties": { "full_id": "n7038782303", "osm_id": "7038782303", "osm_type": "node", "name": "Tumendun", "name:en": "Tumendun", "public_transport": "stop_position", "subway": "yes", "access": "", "description": "", "railway": "", "alt_name": "" }, "geometry": { "type": "Point", "coordinates": [ 103.739085, 36.0736378 ] } },
{ "type": "Feature", "properties": { "full_id": "n7038782307", "osm_id": "7038782307", "osm_type": "node", "name": "Xizhanshizi", "name:en": "Xizhanshizi", "public_transport": "stop_position", "subway": "yes", "access": "", "description": "", "railway": "", "alt_name": "" }, "geometry": { "type": "Point", "coordinates": [ 103.7697489, 36.0682448 ] } },
{ "type": "Feature", "properties": { "full_id": "n7038782312", "osm_id": "7038782312", "osm_type": "node", "name": "Lanzhou University", "name:en": "Lanzhou University", "public_transport": "stop_position", "subway": "yes", "access": "", "description": "", "railway": "", "alt_name": "" }, "geometry": { "type": "Point", "coordinates": [ 103.8544478, 36.0504734 ] } },
{ "type": "Feature", "properties": { "full_id": "n7038782309", "osm_id": "7038782309", "osm_type": "node", "name": "Qilihe", "name:en": "Qilihe", "public_transport": "stop_position", "subway": "yes", "access": "", "description": "", "railway": "", "alt_name": "" }, "geometry": { "type": "Point", "coordinates": [ 103.7788684, 36.0666748 ] } },
{ "type": "Feature", "properties": { "full_id": "n7038782310", "osm_id": "7038782310", "osm_type": "node", "name": "Cultural Palace", "name:en": "Cultural Palace", "public_transport": "stop_position", "subway": "yes", "access": "", "description": "", "railway": "", "alt_name": "" }, "geometry": { "type": "Point", "coordinates": [ 103.8030154, 36.0613909 ] } },
{ "type": "Feature", "properties": { "full_id": "n7038782315", "osm_id": "7038782315", "osm_type": "node", "name": "Lanzhou Customs Station", "name:en": "Yingmentan", "public_transport": "stop_position", "subway": "yes", "access": "", "description": "", "railway": "", "alt_name": "" }, "geometry": { "type": "Point", "coordinates": [ 103.7069729, 36.094683 ] } },
{ "type": "Feature", "properties": { "full_id": "n7038782316", "osm_id": "7038782316", "osm_type": "node", "name": "Xiguan", "name:en": "Xiguan", "public_transport": "stop_position", "subway": "yes", "access": "", "description": "", "railway": "", "alt_name": "西关" }, "geometry": { "type": "Point", "coordinates": [ 103.8134006, 36.0599877 ] } },
{ "type": "Feature", "properties": { "full_id": "n6563942087", "osm_id": "6563942087", "osm_type": "node", "name": "Donggang", "name:en": "Donggang", "public_transport": "stop_position", "subway": "yes", "access": "", "description": "", "railway": "", "alt_name": "" }, "geometry": { "type": "Point", "coordinates": [ 103.9156237, 36.0408062 ] } },
{ "type": "Feature", "properties": { "full_id": "n3945258258", "osm_id": "3945258258", "osm_type": "node", "name": "Gansu Meteorological Bureau", "name:en": "Gansu Meteorological Bureau", "public_transport": "stop_position", "subway": "yes", "access": "", "description": "", "railway": "", "alt_name": "" }, "geometry": { "type": "Point", "coordinates": [ 103.8811081, 36.0421071 ] } },
{ "type": "Feature", "properties": { "full_id": "n3945258259", "osm_id": "3945258259", "osm_type": "node", "name": "Wulipu", "name:en": "Wulipu", "public_transport": "stop_position", "subway": "yes", "access": "", "description": "", "railway": "", "alt_name": "" }, "geometry": { "type": "Point", "coordinates": [ 103.8677873, 36.047257 ] } },
{ "type": "Feature", "properties": { "full_id": "n3945256516", "osm_id": "3945256516", "osm_type": "node", "name": "Lanzhou City University (Gansu Science & Technology Museum)", "name:en": "Lanzhou City University (Gansu Science & Technology Museum)", "public_transport": "stop_position", "subway": "yes", "access": "", "description": "", "railway": "", "alt_name": "" }, "geometry": { "type": "Point", "coordinates": [ 103.6988974, 36.0991122 ] } },
{ "type": "Feature", "properties": { "full_id": "n3945258544", "osm_id": "3945258544", "osm_type": "node", "name": "Chenguanying", "name:en": "Chenguanying", "public_transport": "stop_position", "subway": "yes", "access": "", "description": "", "railway": "", "alt_name": "" }, "geometry": { "type": "Point", "coordinates": [ 103.6600567, 36.0873388 ] } },
{ "type": "Feature", "properties": { "full_id": "n3945259331", "osm_id": "3945259331", "osm_type": "node", "name": "North Square of Lanzhou West Railway Station", "name:en": "North Square of Lanzhou West Railway Station", "public_transport": "stop_position", "subway": "yes", "access": "", "description": "", "railway": "", "alt_name": "" }, "geometry": { "type": "Point", "coordinates": [ 103.7499499, 36.0705343 ] } },
{ "type": "Feature", "properties": { "full_id": "n3945258261", "osm_id": "3945258261", "osm_type": "node", "name": "Dongfanghong Square", "name:en": "Dongfanghong Square", "public_transport": "stop_position", "subway": "yes", "access": "", "description": "", "railway": "", "alt_name": "" }, "geometry": { "type": "Point", "coordinates": [ 103.8394462, 36.0535972 ] } },
{ "type": "Feature", "properties": { "full_id": "n3945258506", "osm_id": "3945258506", "osm_type": "node", "name": "Xiaoxihu Park", "name:en": "Xiaoxihu Park", "public_transport": "stop_position", "subway": "yes", "access": "", "description": "", "railway": "", "alt_name": "" }, "geometry": { "type": "Point", "coordinates": [ 103.7922185, 36.0642293 ] } },
{ "type": "Feature", "properties": { "full_id": "n3945259332", "osm_id": "3945259332", "osm_type": "node", "name": "Matan", "name:en": "Matan", "public_transport": "stop_position", "subway": "yes", "access": "", "description": "", "railway": "", "alt_name": "" }, "geometry": { "type": "Point", "coordinates": [ 103.724763, 36.083139 ] } }
]
}
