{
"type": "FeatureCollection",
"name": "lanzhou-line-2-phase-1-stops",
"crs": { "type": "name", "properties": { "name": "urn:ogc:def:crs:OGC:1.3:CRS84" } },
"features": [
{ "type": "Feature", "properties": { "full_id": "n5367756241", "osm_id": "5367756241", "osm_type": "node", "name": "Yannan Road", "name:en": "Yannan Road", "railway": "construction", "ref": "", "wikidata": "", "wikipedia": "", "construction": "station=subway", "station": "", "public_transport": "", "proposed": "", "name:zh": "", "proposed:railway": "" }, "geometry": { "type": "Point", "coordinates": [ 103.8752121, 36.0566106 ] } },
{ "type": "Feature", "properties": { "full_id": "n4077237802", "osm_id": "4077237802", "osm_type": "node", "name": "Railway Station", "name:en": "Railway Station", "railway": "construction", "ref": "", "wikidata": "", "wikipedia": "", "construction": "station", "station": "subway", "public_transport": "", "proposed": "", "name:zh": "", "proposed:railway": "" }, "geometry": { "type": "Point", "coordinates": [ 103.8509531, 36.0362436 ] } },
{ "type": "Feature", "properties": { "full_id": "n4077238740", "osm_id": "4077238740", "osm_type": "node", "name": "Wulipu", "name:en": "", "railway": "", "ref": "", "wikidata": "", "wikipedia": "", "construction": "", "station": "", "public_transport": "stop_position", "proposed": "", "name:zh": "", "proposed:railway": "" }, "geometry": { "type": "Point", "coordinates": [ 103.8690778, 36.0470622 ] } },
{ "type": "Feature", "properties": { "full_id": null, "osm_id": null, "osm_type": null, "name": "Dongfanghong Square", "name:en": null, "railway": null, "ref": null, "wikidata": null, "wikipedia": null, "construction": null, "station": null, "public_transport": null, "proposed": null, "name:zh": null, "proposed:railway": null }, "geometry": { "type": "Point", "coordinates": [ 103.839444757785287, 36.053305333981235 ] } },
{ "type": "Feature", "properties": { "full_id": "n4077238744", "osm_id": "4077238744", "osm_type": "node", "name": "Nanyuan Road", "name:en": "Nanyuan Road", "railway": "construction", "ref": "", "wikidata": "", "wikipedia": "", "construction": "station", "station": "subway", "public_transport": "", "proposed": "", "name:zh": "", "proposed:railway": "" }, "geometry": { "type": "Point", "coordinates": [ 103.8784039, 36.0605722 ] } },
{ "type": "Feature", "properties": { "full_id": "n4077238745", "osm_id": "4077238745", "osm_type": "node", "name": "Post Building", "name:en": "Post Building", "railway": "construction", "ref": "", "wikidata": "", "wikipedia": "", "construction": "halt", "station": "subway", "public_transport": "", "proposed": "", "name:zh": "", "proposed:railway": "" }, "geometry": { "type": "Point", "coordinates": [ 103.8462708, 36.042635 ] } },
{ "type": "Feature", "properties": { "full_id": "n4077238741", "osm_id": "4077238741", "osm_type": "node", "name": "Number 5 Bus Company", "name:en": "Number 5 Bus Company", "railway": "construction", "ref": "", "wikidata": "", "wikipedia": "", "construction": "station", "station": "subway", "public_transport": "", "proposed": "", "name:zh": "", "proposed:railway": "" }, "geometry": { "type": "Point", "coordinates": [ 103.8576624, 36.0348275 ] } },
{ "type": "Feature", "properties": { "full_id": "n4077238742", "osm_id": "4077238742", "osm_type": "node", "name": "Dingxi Road", "name:en": "Dingxi Road", "railway": "construction", "ref": "", "wikidata": "", "wikipedia": "", "construction": "station", "station": "subway", "public_transport": "", "proposed": "", "name:zh": "", "proposed:railway": "" }, "geometry": { "type": "Point", "coordinates": [ 103.8667455, 36.040081 ] } },
{ "type": "Feature", "properties": { "full_id": null, "osm_id": null, "osm_type": null, "name": "Yanbei Road (new)", "name:en": null, "railway": null, "ref": null, "wikidata": null, "wikipedia": null, "construction": null, "station": null, "public_transport": null, "proposed": null, "name:zh": null, "proposed:railway": null }, "geometry": { "type": "Point", "coordinates": [ 103.882184853791259, 36.069149694592582 ] } }
]
}
