{
"type": "FeatureCollection",
"name": "panamacity-line-3-stops",
"crs": { "type": "name", "properties": { "name": "urn:ogc:def:crs:OGC:1.3:CRS84" } },
"features": [
{ "type": "Feature", "properties": { "full_id": "1001", "osm_id": null, "osm_type": null, "highway": null, "traffic_signals": null, "name": "Albrook", "public_transport": null, "railway": null, "subway": null, "operator": null }, "geometry": { "type": "Point", "coordinates": [ -79.549726829877258, 8.973779974954926 ] } },
{ "type": "Feature", "properties": { "full_id": "1002", "osm_id": null, "osm_type": null, "highway": null, "traffic_signals": null, "name": "Balboa", "public_transport": null, "railway": null, "subway": null, "operator": null }, "geometry": { "type": "Point", "coordinates": [ -79.558945213566091, 8.958415569740477 ] } },
{ "type": "Feature", "properties": { "full_id": "1003", "osm_id": null, "osm_type": null, "highway": null, "traffic_signals": null, "name": "Panam치 Pacifico", "public_transport": null, "railway": null, "subway": null, "operator": null }, "geometry": { "type": "Point", "coordinates": [ -79.58886147761288, 8.952770337513261 ] } },
{ "type": "Feature", "properties": { "full_id": "1003", "osm_id": null, "osm_type": null, "highway": null, "traffic_signals": null, "name": "Loma Coba", "public_transport": null, "railway": null, "subway": null, "operator": null }, "geometry": { "type": "Point", "coordinates": [ -79.632816520053723, 8.950880392360327 ] } },
{ "type": "Feature", "properties": { "full_id": "1005", "osm_id": null, "osm_type": null, "highway": null, "traffic_signals": null, "name": "Arralj치n", "public_transport": null, "railway": null, "subway": null, "operator": null }, "geometry": { "type": "Point", "coordinates": [ -79.651750235339151, 8.955543875604347 ] } },
{ "type": "Feature", "properties": { "full_id": "1005", "osm_id": null, "osm_type": null, "highway": null, "traffic_signals": null, "name": "Arraij치n Mall", "public_transport": null, "railway": null, "subway": null, "operator": null }, "geometry": { "type": "Point", "coordinates": [ -79.659751096653991, 8.952402167149765 ] } },
{ "type": "Feature", "properties": { "full_id": "1005", "osm_id": null, "osm_type": null, "highway": null, "traffic_signals": null, "name": "Burunga", "public_transport": null, "railway": null, "subway": null, "operator": null }, "geometry": { "type": "Point", "coordinates": [ -79.667702263178072, 8.950831302744996 ] } },
{ "type": "Feature", "properties": { "full_id": "1006", "osm_id": null, "osm_type": null, "highway": null, "traffic_signals": null, "name": "Nuevo Chorrillo", "public_transport": null, "railway": null, "subway": null, "operator": null }, "geometry": { "type": "Point", "coordinates": [ -79.678804530373384, 8.947028431024528 ] } },
{ "type": "Feature", "properties": { "full_id": "1007", "osm_id": null, "osm_type": null, "highway": null, "traffic_signals": null, "name": "Caceres", "public_transport": null, "railway": null, "subway": null, "operator": null }, "geometry": { "type": "Point", "coordinates": [ -79.686462046695766, 8.935662294500867 ] } },
{ "type": "Feature", "properties": { "full_id": "1008", "osm_id": null, "osm_type": null, "highway": null, "traffic_signals": null, "name": "Vista Alegre", "public_transport": null, "railway": null, "subway": null, "operator": null }, "geometry": { "type": "Point", "coordinates": [ -79.702190447976193, 8.930581271867544 ] } },
{ "type": "Feature", "properties": { "full_id": "1009", "osm_id": null, "osm_type": null, "highway": null, "traffic_signals": null, "name": "Vista Alegre II", "public_transport": null, "railway": null, "subway": null, "operator": null }, "geometry": { "type": "Point", "coordinates": [ -79.708377449427729, 8.926948420001519 ] } },
{ "type": "Feature", "properties": { "full_id": "1010", "osm_id": null, "osm_type": null, "highway": null, "traffic_signals": null, "name": "Nuevo Arraij치n", "public_transport": null, "railway": null, "subway": null, "operator": null }, "geometry": { "type": "Point", "coordinates": [ -79.719409692979866, 8.926604769978622 ] } },
{ "type": "Feature", "properties": { "full_id": "1011", "osm_id": null, "osm_type": null, "highway": null, "traffic_signals": null, "name": "San Bernardino", "public_transport": null, "railway": null, "subway": null, "operator": null }, "geometry": { "type": "Point", "coordinates": [ -79.726205455618398, 8.927414801657601 ] } },
{ "type": "Feature", "properties": { "full_id": "1013", "osm_id": null, "osm_type": null, "highway": null, "traffic_signals": null, "name": "Ciudad del Futuro", "public_transport": null, "railway": null, "subway": null, "operator": null }, "geometry": { "type": "Point", "coordinates": [ -79.73703892000745, 8.923438265248272 ] } }
]
}
