{
"type": "FeatureCollection",
"name": "quito-metro-stops",
"crs": { "type": "name", "properties": { "name": "urn:ogc:def:crs:OGC:1.3:CRS84" } },
"features": [
{ "type": "Feature", "properties": { "full_id": "n6855882358", "osm_id": "6855882358", "osm_type": "node", "junction": "", "citylines:id": "16934", "name": "El Labrador", "network": "Metro", "public_transport": "stop_position", "railway": "station", "subway": "yes" }, "geometry": { "type": "Point", "coordinates": [ -78.4862496, -0.1536074 ] } },
{ "type": "Feature", "properties": { "full_id": "n6855882359", "osm_id": "6855882359", "osm_type": "node", "junction": "", "citylines:id": "16933", "name": "Jipijapa", "network": "Metro", "public_transport": "stop_position", "railway": "station", "subway": "yes" }, "geometry": { "type": "Point", "coordinates": [ -78.4834959, -0.1642952 ] } },
{ "type": "Feature", "properties": { "full_id": "n6855882360", "osm_id": "6855882360", "osm_type": "node", "junction": "", "citylines:id": "16931", "name": "La Carolina", "network": "Metro", "public_transport": "stop_position", "railway": "station", "subway": "yes" }, "geometry": { "type": "Point", "coordinates": [ -78.4854707, -0.1903678 ] } },
{ "type": "Feature", "properties": { "full_id": "n6855882361", "osm_id": "6855882361", "osm_type": "node", "junction": "", "citylines:id": "16932", "name": "Iñaquito", "network": "Metro", "public_transport": "stop_position", "railway": "station", "subway": "yes" }, "geometry": { "type": "Point", "coordinates": [ -78.4838197, -0.1767409 ] } },
{ "type": "Feature", "properties": { "full_id": "n6855882362", "osm_id": "6855882362", "osm_type": "node", "junction": "", "citylines:id": "16930", "name": "La Pradera", "network": "Metro", "public_transport": "stop_position", "railway": "station", "subway": "yes" }, "geometry": { "type": "Point", "coordinates": [ -78.492314, -0.194129 ] } },
{ "type": "Feature", "properties": { "full_id": "n6855882363", "osm_id": "6855882363", "osm_type": "node", "junction": "", "citylines:id": "16928", "name": "El Ejido", "network": "Metro", "public_transport": "stop_position", "railway": "station", "subway": "yes" }, "geometry": { "type": "Point", "coordinates": [ -78.4970233, -0.2099701 ] } },
{ "type": "Feature", "properties": { "full_id": "n6855882364", "osm_id": "6855882364", "osm_type": "node", "junction": "", "citylines:id": "16929", "name": "Universidad Central", "network": "Metro", "public_transport": "stop_position", "railway": "station", "subway": "yes" }, "geometry": { "type": "Point", "coordinates": [ -78.5004185, -0.1987756 ] } },
{ "type": "Feature", "properties": { "full_id": "n6855882365", "osm_id": "6855882365", "osm_type": "node", "junction": "", "citylines:id": "16927", "name": "La Alameda", "network": "Metro", "public_transport": "stop_position", "railway": "station", "subway": "yes" }, "geometry": { "type": "Point", "coordinates": [ -78.5011942, -0.2151985 ] } },
{ "type": "Feature", "properties": { "full_id": "n6855882366", "osm_id": "6855882366", "osm_type": "node", "junction": "", "citylines:id": "16923", "name": "Cardenal de la Torre", "network": "Metro", "public_transport": "stop_position", "railway": "station", "subway": "yes" }, "geometry": { "type": "Point", "coordinates": [ -78.5332343, -0.2571234 ] } },
{ "type": "Feature", "properties": { "full_id": "n6855882367", "osm_id": "6855882367", "osm_type": "node", "junction": "", "citylines:id": "16921", "name": "Morán Valverde", "network": "Metro", "public_transport": "stop_position", "railway": "station", "subway": "yes" }, "geometry": { "type": "Point", "coordinates": [ -78.5487561, -0.2809115 ] } },
{ "type": "Feature", "properties": { "full_id": "n6855882368", "osm_id": "6855882368", "osm_type": "node", "junction": "", "citylines:id": "16925", "name": "La Magdalena", "network": "Metro", "public_transport": "stop_position", "railway": "station", "subway": "yes" }, "geometry": { "type": "Point", "coordinates": [ -78.5253608, -0.2379308 ] } },
{ "type": "Feature", "properties": { "full_id": "n6855882369", "osm_id": "6855882369", "osm_type": "node", "junction": "", "citylines:id": "16926", "name": "San Francisco", "network": "Metro", "public_transport": "stop_position", "railway": "station", "subway": "yes" }, "geometry": { "type": "Point", "coordinates": [ -78.5143199, -0.2205999 ] } },
{ "type": "Feature", "properties": { "full_id": "n6855882370", "osm_id": "6855882370", "osm_type": "node", "junction": "", "citylines:id": "16924", "name": "El Recreo", "network": "Metro", "public_transport": "stop_position", "railway": "station", "subway": "yes" }, "geometry": { "type": "Point", "coordinates": [ -78.522325, -0.25442 ] } },
{ "type": "Feature", "properties": { "full_id": "n6855882371", "osm_id": "6855882371", "osm_type": "node", "junction": "", "citylines:id": "16920", "name": "Solanda", "network": "Metro", "public_transport": "stop_position", "railway": "station", "subway": "yes" }, "geometry": { "type": "Point", "coordinates": [ -78.535305, -0.2659231 ] } },
{ "type": "Feature", "properties": { "full_id": "n6855882372", "osm_id": "6855882372", "osm_type": "node", "junction": "", "citylines:id": "16922", "name": "Quitumbe", "network": "Metro", "public_transport": "stop_position", "railway": "station", "subway": "yes" }, "geometry": { "type": "Point", "coordinates": [ -78.5550529, -0.2954627 ] } }
]
}
