{
"type": "FeatureCollection",
"name": "changsha-line-5-phase-1-stops",
"crs": { "type": "name", "properties": { "name": "urn:ogc:def:crs:OGC:1.3:CRS84" } },
"features": [
{ "type": "Feature", "properties": { "full_id": null, "osm_id": null, "osm_type": null, "name": "Shuiduhe", "name:en": null, "public_transport": null, "railway": null, "station": null, "subway": null, "wikidata": null, "access": null, "description": null }, "geometry": { "type": "Point", "coordinates": [ 113.058203891867407, 28.282842670700244 ] } },
{ "type": "Feature", "properties": { "full_id": null, "osm_id": null, "osm_type": null, "name": "Tuqiao", "name:en": null, "public_transport": null, "railway": null, "station": null, "subway": null, "wikidata": null, "access": null, "description": null }, "geometry": { "type": "Point", "coordinates": [ 113.050106010489415, 28.266984051943837 ] } },
{ "type": "Feature", "properties": { "full_id": null, "osm_id": null, "osm_type": null, "name": "Baimaopu", "name:en": null, "public_transport": null, "railway": null, "station": null, "subway": null, "wikidata": null, "access": null, "description": null }, "geometry": { "type": "Point", "coordinates": [ 113.042948125890319, 28.253486953040394 ] } },
{ "type": "Feature", "properties": { "full_id": null, "osm_id": null, "osm_type": null, "name": "Yuehu Park North", "name:en": null, "public_transport": null, "railway": null, "station": null, "subway": null, "wikidata": null, "access": null, "description": null }, "geometry": { "type": "Point", "coordinates": [ 113.035319297991506, 28.245791603455569 ] } },
{ "type": "Feature", "properties": { "full_id": null, "osm_id": null, "osm_type": null, "name": "Malanshan", "name:en": null, "public_transport": null, "railway": null, "station": null, "subway": null, "wikidata": null, "access": null, "description": null }, "geometry": { "type": "Point", "coordinates": [ 113.035073621310289, 28.235167787830303 ] } },
{ "type": "Feature", "properties": { "full_id": null, "osm_id": null, "osm_type": null, "name": "Yazipu", "name:en": null, "public_transport": null, "railway": null, "station": null, "subway": null, "wikidata": null, "access": null, "description": null }, "geometry": { "type": "Point", "coordinates": [ 113.03021527044767, 28.228234035957342 ] } },
{ "type": "Feature", "properties": { "full_id": null, "osm_id": null, "osm_type": null, "name": "Huojucun", "name:en": null, "public_transport": null, "railway": null, "station": null, "subway": null, "wikidata": null, "access": null, "description": null }, "geometry": { "type": "Point", "coordinates": [ 113.025704268615954, 28.211587362000337 ] } },
{ "type": "Feature", "properties": { "full_id": null, "osm_id": null, "osm_type": null, "name": "Mawangdui", "name:en": null, "public_transport": null, "railway": null, "station": null, "subway": null, "wikidata": null, "access": null, "description": null }, "geometry": { "type": "Point", "coordinates": [ 113.025333863773469, 28.203177660219271 ] } },
{ "type": "Feature", "properties": { "full_id": null, "osm_id": null, "osm_type": null, "name": "Wanjiali Square", "name:en": null, "public_transport": null, "railway": null, "station": null, "subway": null, "wikidata": null, "access": null, "description": null }, "geometry": { "type": "Point", "coordinates": [ 113.025036406007047, 28.194848464796834 ] } },
{ "type": "Feature", "properties": { "full_id": null, "osm_id": null, "osm_type": null, "name": "Furong District Government", "name:en": null, "public_transport": null, "railway": null, "station": null, "subway": null, "wikidata": null, "access": null, "description": null }, "geometry": { "type": "Point", "coordinates": [ 113.024894291496139, 28.188472965936487 ] } },
{ "type": "Feature", "properties": { "full_id": null, "osm_id": null, "osm_type": null, "name": "Gaoqiao North", "name:en": null, "public_transport": null, "railway": null, "station": null, "subway": null, "wikidata": null, "access": null, "description": null }, "geometry": { "type": "Point", "coordinates": [ 113.024578313487694, 28.179365542380687 ] } },
{ "type": "Feature", "properties": { "full_id": null, "osm_id": null, "osm_type": null, "name": "Gaoqiao South", "name:en": null, "public_transport": null, "railway": null, "station": null, "subway": null, "wikidata": null, "access": null, "description": null }, "geometry": { "type": "Point", "coordinates": [ 113.024301643748203, 28.170300450806888 ] } },
{ "type": "Feature", "properties": { "full_id": null, "osm_id": null, "osm_type": null, "name": "Guitang", "name:en": null, "public_transport": null, "railway": null, "station": null, "subway": null, "wikidata": null, "access": null, "description": null }, "geometry": { "type": "Point", "coordinates": [ 113.023917632197211, 28.159643374338614 ] } },
{ "type": "Feature", "properties": { "full_id": null, "osm_id": null, "osm_type": null, "name": "Muqiao", "name:en": null, "public_transport": null, "railway": null, "station": null, "subway": null, "wikidata": null, "access": null, "description": null }, "geometry": { "type": "Point", "coordinates": [ 113.025477868105199, 28.151873943785283 ] } },
{ "type": "Feature", "properties": { "full_id": null, "osm_id": null, "osm_type": null, "name": "Yuhua District Government", "name:en": null, "public_transport": null, "railway": null, "station": null, "subway": null, "wikidata": null, "access": null, "description": null }, "geometry": { "type": "Point", "coordinates": [ 113.029665710610104, 28.140764066295283 ] } },
{ "type": "Feature", "properties": { "full_id": null, "osm_id": null, "osm_type": null, "name": "Datang", "name:en": null, "public_transport": null, "railway": null, "station": null, "subway": null, "wikidata": null, "access": null, "description": null }, "geometry": { "type": "Point", "coordinates": [ 113.030852517962586, 28.134390079291418 ] } },
{ "type": "Feature", "properties": { "full_id": null, "osm_id": null, "osm_type": null, "name": "Bantangchong", "name:en": null, "public_transport": null, "railway": null, "station": null, "subway": null, "wikidata": null, "access": null, "description": null }, "geometry": { "type": "Point", "coordinates": [ 113.033618459429292, 28.119620753143259 ] } },
{ "type": "Feature", "properties": { "full_id": null, "osm_id": null, "osm_type": null, "name": "Maozhutang", "name:en": null, "public_transport": null, "railway": null, "station": null, "subway": null, "wikidata": null, "access": null, "description": null }, "geometry": { "type": "Point", "coordinates": [ 113.031021089962351, 28.09816486365985 ] } }
]
}
