{
"type": "FeatureCollection",
"name": "guiyang-line-1-phase-1-stops",
"crs": { "type": "name", "properties": { "name": "urn:ogc:def:crs:OGC:1.3:CRS84" } },
"features": [
{ "type": "Feature", "properties": { "full_id": "n7103165082", "osm_id": "7103165082", "osm_type": "node", "name": "Xiaomeng Industrial Park", "name:en": "Xiaomeng Industrial Park", "public_transport": "stop_position", "railway": "", "subway": "yes", "station": "", "construction": "", "construction:railway": "" }, "geometry": { "type": "Point", "coordinates": [ 106.7058824, 26.5011505 ] } },
{ "type": "Feature", "properties": { "full_id": "n7103165083", "osm_id": "7103165083", "osm_type": "node", "name": "West Zhongshan Road", "name:en": "West Zhongshan Road", "public_transport": "stop_position", "railway": "", "subway": "yes", "station": "", "construction": "", "construction:railway": "" }, "geometry": { "type": "Point", "coordinates": [ 106.7060562, 26.5809268 ] } },
{ "type": "Feature", "properties": { "full_id": "n5235040326", "osm_id": "5235040326", "osm_type": "node", "name": "Penshuichi", "name:en": "Penshuichi", "public_transport": "station", "railway": "station", "subway": "yes", "station": "subway", "construction": "", "construction:railway": "" }, "geometry": { "type": "Point", "coordinates": [ 106.7065573, 26.5871935 ] } },
{ "type": "Feature", "properties": { "full_id": "n7294445483", "osm_id": "7294445483", "osm_type": "node", "name": "West Lincheng Road", "name:en": "West Lincheng Road", "public_transport": "station", "railway": "station", "subway": "yes", "station": "subway", "construction": "", "construction:railway": "" }, "geometry": { "type": "Point", "coordinates": [ 106.6139787, 26.6492604 ] } },
{ "type": "Feature", "properties": { "full_id": "n4632174229", "osm_id": "4632174229", "osm_type": "node", "name": "Nanya Road", "name:en": "Nanya Road", "public_transport": "stop_position", "railway": "station", "subway": "yes", "station": "subway", "construction": "", "construction:railway": "" }, "geometry": { "type": "Point", "coordinates": [ 106.6975299, 26.6139322 ] } },
{ "type": "Feature", "properties": { "full_id": "n4632174233", "osm_id": "4632174233", "osm_type": "node", "name": "Xinzhai", "name:en": "Xinzhai", "public_transport": "stop_position", "railway": "station", "subway": "yes", "station": "subway", "construction": "", "construction:railway": "" }, "geometry": { "type": "Point", "coordinates": [ 106.6504911, 26.6313332 ] } },
{ "type": "Feature", "properties": { "full_id": "n4632174234", "osm_id": "4632174234", "osm_type": "node", "name": "Yangguan", "name:en": "Yangguan", "public_transport": "stop_position", "railway": "station", "subway": "yes", "station": "subway", "construction": "", "construction:railway": "" }, "geometry": { "type": "Point", "coordinates": [ 106.652045, 26.6427538 ] } },
{ "type": "Feature", "properties": { "full_id": "n4632174235", "osm_id": "4632174235", "osm_type": "node", "name": "International Eco-Conference Center", "name:en": "International Eco-Conference Center", "public_transport": "stop_position", "railway": "station", "subway": "yes", "station": "subway", "construction": "", "construction:railway": "" }, "geometry": { "type": "Point", "coordinates": [ 106.6445231, 26.6492998 ] } },
{ "type": "Feature", "properties": { "full_id": "n4632174217", "osm_id": "4632174217", "osm_type": "node", "name": "Qingshuijiang Road", "name:en": "Qingshuijiang Road", "public_transport": "stop_position", "railway": "station", "subway": "yes", "station": "", "construction": "", "construction:railway": "" }, "geometry": { "type": "Point", "coordinates": [ 106.7055322, 26.5107232 ] } },
{ "type": "Feature", "properties": { "full_id": "n5346704425", "osm_id": "5346704425", "osm_type": "node", "name": "Laowantang", "name:en": "Laowantang", "public_transport": "stop_position", "railway": "", "subway": "yes", "station": "", "construction": "", "construction:railway": "" }, "geometry": { "type": "Point", "coordinates": [ 106.586647, 26.652067 ] } },
{ "type": "Feature", "properties": { "full_id": "n4632174218", "osm_id": "4632174218", "osm_type": "node", "name": "Changjiang Road", "name:en": "Changjiang Road", "public_transport": "stop_position", "railway": "station", "subway": "yes", "station": "", "construction": "", "construction:railway": "" }, "geometry": { "type": "Point", "coordinates": [ 106.7072064, 26.5213563 ] } },
{ "type": "Feature", "properties": { "full_id": "n5346704509", "osm_id": "5346704509", "osm_type": "node", "name": "Bailuhu", "name:en": "Bailuhu", "public_transport": "stop_position", "railway": "station", "subway": "yes", "station": "subway", "construction": "", "construction:railway": "" }, "geometry": { "type": "Point", "coordinates": [ 106.6582292, 26.6232864 ] } },
{ "type": "Feature", "properties": { "full_id": "n4632174223", "osm_id": "4632174223", "osm_type": "node", "name": "Hebin Park", "name:en": "Hebin Park", "public_transport": "stop_position", "railway": "station", "subway": "yes", "station": "", "construction": "", "construction:railway": "" }, "geometry": { "type": "Point", "coordinates": [ 106.7040698, 26.573164 ] } },
{ "type": "Feature", "properties": { "full_id": "n5235040384", "osm_id": "5235040384", "osm_type": "node", "name": "Xiamaixi", "name:en": "Xiamaixi", "public_transport": "stop_position", "railway": "station", "subway": "yes", "station": "subway", "construction": "", "construction:railway": "" }, "geometry": { "type": "Point", "coordinates": [ 106.5764329, 26.658789 ] } },
{ "type": "Feature", "properties": { "full_id": "n5235040409", "osm_id": "5235040409", "osm_type": "node", "name": "Guiyang Railway Station", "name:en": "Guiyangbei Railway Station", "public_transport": "stop_position", "railway": "station", "subway": "yes", "station": "subway", "construction": "", "construction:railway": "" }, "geometry": { "type": "Point", "coordinates": [ 106.6724029, 26.6227917 ] } },
{ "type": "Feature", "properties": { "full_id": "n5235040436", "osm_id": "5235040436", "osm_type": "node", "name": "Beijing Road", "name:en": "Beijing Road", "public_transport": "station", "railway": "station", "subway": "yes", "station": "", "construction": "", "construction:railway": "" }, "geometry": { "type": "Point", "coordinates": [ 106.7032206, 26.5946913 ] } },
{ "type": "Feature", "properties": { "full_id": "n4632174236", "osm_id": "4632174236", "osm_type": "node", "name": "Guanshanhu Park", "name:en": "Guanshanhu Park", "public_transport": "stop_position", "railway": "station", "subway": "yes", "station": "subway", "construction": "", "construction:railway": "" }, "geometry": { "type": "Point", "coordinates": [ 106.6279427, 26.648751 ] } },
{ "type": "Feature", "properties": { "full_id": "n5235040451", "osm_id": "5235040451", "osm_type": "node", "name": "Guiyang Railway Station", "name:en": "Guiyang Railway Station", "public_transport": "station", "railway": "station", "subway": "yes", "station": "subway", "construction": "", "construction:railway": "" }, "geometry": { "type": "Point", "coordinates": [ 106.6996999, 26.5610676 ] } },
{ "type": "Feature", "properties": { "full_id": "n4632174237", "osm_id": "4632174237", "osm_type": "node", "name": "Yueshanhu Park", "name:en": "Yueshanhu Park", "public_transport": "stop_position", "railway": "station", "subway": "yes", "station": "subway", "construction": "", "construction:railway": "" }, "geometry": { "type": "Point", "coordinates": [ 106.6046259, 26.6497764 ] } },
{ "type": "Feature", "properties": { "full_id": "n4632174240", "osm_id": "4632174240", "osm_type": "node", "name": "Douguan", "name:en": "Douguan", "public_transport": "stop_position", "railway": "station", "subway": "yes", "station": "subway", "construction": "", "construction:railway": "" }, "geometry": { "type": "Point", "coordinates": [ 106.5650297, 26.6570087 ] } },
{ "type": "Feature", "properties": { "full_id": "n7103165080", "osm_id": "7103165080", "osm_type": "node", "name": "Wangchengpo", "name:en": "Wangchengpo", "public_transport": "stop_position", "railway": "", "subway": "yes", "station": "", "construction": "", "construction:railway": "" }, "geometry": { "type": "Point", "coordinates": [ 106.7085479, 26.540003 ] } },
{ "type": "Feature", "properties": { "full_id": "n7103165081", "osm_id": "7103165081", "osm_type": "node", "name": "Bageyan", "name:en": "Bageyan", "public_transport": "stop_position", "railway": "", "subway": "yes", "station": "", "construction": "", "construction:railway": "" }, "geometry": { "type": "Point", "coordinates": [ 106.6994645, 26.6006399 ] } },
{ "type": "Feature", "properties": { "full_id": null, "osm_id": null, "osm_type": null, "name": "Yaguan", "name:en": null, "public_transport": null, "railway": null, "subway": null, "station": null, "construction": null, "construction:railway": null }, "geometry": { "type": "Point", "coordinates": [ 106.698706407122387, 26.639967108862745 ] } },
{ "type": "Feature", "properties": { "full_id": null, "osm_id": null, "osm_type": null, "name": "Shachong Road", "name:en": null, "public_transport": null, "railway": null, "subway": null, "station": null, "construction": null, "construction:railway": null }, "geometry": { "type": "Point", "coordinates": [ 106.700887498881329, 26.552559061013959 ] } },
{ "type": "Feature", "properties": { "full_id": null, "osm_id": null, "osm_type": null, "name": "Zhujiang Road", "name:en": null, "public_transport": null, "railway": null, "subway": null, "station": null, "construction": null, "construction:railway": null }, "geometry": { "type": "Point", "coordinates": [ 106.707146105844046, 26.530272900222922 ] } }
]
}
