{
"type": "FeatureCollection",
"name": "hefei-line-7-phase-1-stops",
"crs": { "type": "name", "properties": { "name": "urn:ogc:def:crs:OGC:1.3:CRS84" } },
"features": [
{ "type": "Feature", "properties": { "full_id": null, "osm_id": null, "osm_type": null, "name": "Chaohunanlu", "name:en": null, "public_transport": null, "railway": null, "station": null, "subway": null, "wikidata": null }, "geometry": { "type": "Point", "coordinates": [ 117.369999545321235, 31.742871736590541 ] } },
{ "type": "Feature", "properties": { "full_id": null, "osm_id": null, "osm_type": null, "name": "Chongqinglu (name and location may change)", "name:en": null, "public_transport": null, "railway": null, "station": null, "subway": null, "wikidata": null }, "geometry": { "type": "Point", "coordinates": [ 117.353816305616377, 31.742903160356946 ] } },
{ "type": "Feature", "properties": { "full_id": null, "osm_id": null, "osm_type": null, "name": "Shanghailu", "name:en": null, "public_transport": null, "railway": null, "station": null, "subway": null, "wikidata": null }, "geometry": { "type": "Point", "coordinates": [ 117.333104100146457, 31.742843904487323 ] } },
{ "type": "Feature", "properties": { "full_id": null, "osm_id": null, "osm_type": null, "name": "Anhuilu (name may change)", "name:en": null, "public_transport": null, "railway": null, "station": null, "subway": null, "wikidata": null }, "geometry": { "type": "Point", "coordinates": [ 117.322261006866597, 31.74283724619616 ] } },
{ "type": "Feature", "properties": { "full_id": null, "osm_id": null, "osm_type": null, "name": "Songshanlu", "name:en": null, "public_transport": null, "railway": null, "station": null, "subway": null, "wikidata": null }, "geometry": { "type": "Point", "coordinates": [ 117.309741619185914, 31.742875862444333 ] } },
{ "type": "Feature", "properties": { "full_id": null, "osm_id": null, "osm_type": null, "name": "Zilu", "name:en": null, "public_transport": null, "railway": null, "station": null, "subway": null, "wikidata": null }, "geometry": { "type": "Point", "coordinates": [ 117.296977642515074, 31.742917143822602 ] } },
{ "type": "Feature", "properties": { "full_id": null, "osm_id": null, "osm_type": null, "name": "Ziyunlu", "name:en": null, "public_transport": null, "railway": null, "station": null, "subway": null, "wikidata": null }, "geometry": { "type": "Point", "coordinates": [ 117.280915034355786, 31.742964147647182 ] } },
{ "type": "Feature", "properties": { "full_id": null, "osm_id": null, "osm_type": null, "name": "Yaosu Market (name may change)", "name:en": null, "public_transport": null, "railway": null, "station": null, "subway": null, "wikidata": null }, "geometry": { "type": "Point", "coordinates": [ 117.27622907896982, 31.750786422418045 ] } },
{ "type": "Feature", "properties": { "full_id": null, "osm_id": null, "osm_type": null, "name": "Jinxiu Ave.", "name:en": null, "public_transport": null, "railway": null, "station": null, "subway": null, "wikidata": null }, "geometry": { "type": "Point", "coordinates": [ 117.26379956588373, 31.758140149126735 ] } },
{ "type": "Feature", "properties": { "full_id": null, "osm_id": null, "osm_type": null, "name": "Qingtanlu", "name:en": null, "public_transport": null, "railway": null, "station": null, "subway": null, "wikidata": null }, "geometry": { "type": "Point", "coordinates": [ 117.254566606626156, 31.755546243147297 ] } },
{ "type": "Feature", "properties": { "full_id": null, "osm_id": null, "osm_type": null, "name": "Gengyunlu", "name:en": null, "public_transport": null, "railway": null, "station": null, "subway": null, "wikidata": null }, "geometry": { "type": "Point", "coordinates": [ 117.24488539507999, 31.761842679021949 ] } },
{ "type": "Feature", "properties": { "full_id": null, "osm_id": null, "osm_type": null, "name": "Shimenlu", "name:en": null, "public_transport": null, "railway": null, "station": null, "subway": null, "wikidata": null }, "geometry": { "type": "Point", "coordinates": [ 117.244899517838263, 31.772696018687462 ] } },
{ "type": "Feature", "properties": { "full_id": null, "osm_id": null, "osm_type": null, "name": "Tiandulu", "name:en": null, "public_transport": null, "railway": null, "station": null, "subway": null, "wikidata": null }, "geometry": { "type": "Point", "coordinates": [ 117.235323135773598, 31.778292270477163 ] } },
{ "type": "Feature", "properties": { "full_id": null, "osm_id": null, "osm_type": null, "name": "Lianhualu", "name:en": null, "public_transport": null, "railway": null, "station": null, "subway": null, "wikidata": null }, "geometry": { "type": "Point", "coordinates": [ 117.225871407920465, 31.778291221277481 ] } },
{ "type": "Feature", "properties": { "full_id": null, "osm_id": null, "osm_type": null, "name": "Songgulu", "name:en": null, "public_transport": null, "railway": null, "station": null, "subway": null, "wikidata": null }, "geometry": { "type": "Point", "coordinates": [ 117.214473072132549, 31.783880188894578 ] } },
{ "type": "Feature", "properties": { "full_id": null, "osm_id": null, "osm_type": null, "name": "Fanhua Ave.", "name:en": null, "public_transport": null, "railway": null, "station": null, "subway": null, "wikidata": null }, "geometry": { "type": "Point", "coordinates": [ 117.204406939288518, 31.784264698242936 ] } },
{ "type": "Feature", "properties": { "full_id": null, "osm_id": null, "osm_type": null, "name": "Songlinlu", "name:en": null, "public_transport": null, "railway": null, "station": null, "subway": null, "wikidata": null }, "geometry": { "type": "Point", "coordinates": [ 117.194582235306356, 31.784272609498142 ] } }
]
}
