{
"type": "FeatureCollection",
"name": "istanbul-m7-phase1-2-stops",
"crs": { "type": "name", "properties": { "name": "urn:ogc:def:crs:OGC:1.3:CRS84" } },
"features": [
{ "type": "Feature", "properties": { "full_id": "n6507293770", "osm_id": "6507293770", "osm_type": "node", "name": "Yıldız", "railway": "construction", "constructi": "station", "public_tra": null, "subway": null, "train": null, "network": null, "station": null, "wheelchair": null }, "geometry": { "type": "Point", "coordinates": [ 29.0096193, 41.0545586 ] } },
{ "type": "Feature", "properties": { "full_id": "n6507303869", "osm_id": "6507303869", "osm_type": "node", "name": "Fulya", "railway": "construction", "constructi": "station", "public_tra": null, "subway": null, "train": null, "network": null, "station": null, "wheelchair": null }, "geometry": { "type": "Point", "coordinates": [ 29.0071463, 41.0623331 ] } },
{ "type": "Feature", "properties": { "full_id": "n6507340893", "osm_id": "6507340893", "osm_type": "node", "name": "Çağlayan", "railway": "stop", "constructi": null, "public_tra": "stop_position", "subway": "yes", "train": null, "network": null, "station": null, "wheelchair": null }, "geometry": { "type": "Point", "coordinates": [ 28.9803555, 41.0706506 ] } },
{ "type": "Feature", "properties": { "full_id": "n6508650238", "osm_id": "6508650238", "osm_type": "node", "name": "Çağlayan", "railway": "stop", "constructi": null, "public_tra": "stop_position", "subway": "yes", "train": null, "network": null, "station": null, "wheelchair": null }, "geometry": { "type": "Point", "coordinates": [ 28.9806515, 41.0707995 ] } },
{ "type": "Feature", "properties": { "full_id": "n6508650248", "osm_id": "6508650248", "osm_type": "node", "name": "Şişli-Mecidiyeköy", "railway": "stop", "constructi": null, "public_tra": "stop_position", "subway": "yes", "train": null, "network": null, "station": null, "wheelchair": null }, "geometry": { "type": "Point", "coordinates": [ 28.9953153, 41.064968 ] } },
{ "type": "Feature", "properties": { "full_id": "n6508650249", "osm_id": "6508650249", "osm_type": "node", "name": "Şişli-Mecidiyeköy", "railway": "stop", "constructi": null, "public_tra": "stop_position", "subway": "yes", "train": null, "network": null, "station": null, "wheelchair": null }, "geometry": { "type": "Point", "coordinates": [ 28.9954206, 41.0652495 ] } },
{ "type": "Feature", "properties": { "full_id": "n6508688803", "osm_id": "6508688803", "osm_type": "node", "name": "Alibeyköy", "railway": null, "constructi": null, "public_tra": "stop_position", "subway": "yes", "train": null, "network": null, "station": null, "wheelchair": null }, "geometry": { "type": "Point", "coordinates": [ 28.9495739, 41.0791256 ] } },
{ "type": "Feature", "properties": { "full_id": "n6508688804", "osm_id": "6508688804", "osm_type": "node", "name": "Alibeyköy", "railway": null, "constructi": null, "public_tra": "stop_position", "subway": "yes", "train": null, "network": null, "station": null, "wheelchair": null }, "geometry": { "type": "Point", "coordinates": [ 28.9495879, 41.0791653 ] } },
{ "type": "Feature", "properties": { "full_id": "n6508688805", "osm_id": "6508688805", "osm_type": "node", "name": "Nurtepe", "railway": null, "constructi": null, "public_tra": "stop_position", "subway": "yes", "train": null, "network": null, "station": null, "wheelchair": null }, "geometry": { "type": "Point", "coordinates": [ 28.9629316, 41.0795619 ] } },
{ "type": "Feature", "properties": { "full_id": "n6508688806", "osm_id": "6508688806", "osm_type": "node", "name": "Nurtepe", "railway": null, "constructi": null, "public_tra": "stop_position", "subway": "yes", "train": null, "network": null, "station": null, "wheelchair": null }, "geometry": { "type": "Point", "coordinates": [ 28.9626741, 41.0797578 ] } },
{ "type": "Feature", "properties": { "full_id": "n6508688856", "osm_id": "6508688856", "osm_type": "node", "name": "Kağıthane", "railway": null, "constructi": null, "public_tra": "stop_position", "subway": "yes", "train": null, "network": null, "station": null, "wheelchair": null }, "geometry": { "type": "Point", "coordinates": [ 28.9731331, 41.0796289 ] } },
{ "type": "Feature", "properties": { "full_id": "n6508688857", "osm_id": "6508688857", "osm_type": "node", "name": "Kağıthane", "railway": null, "constructi": null, "public_tra": "stop_position", "subway": "yes", "train": null, "network": null, "station": null, "wheelchair": null }, "geometry": { "type": "Point", "coordinates": [ 28.9731572, 41.079665 ] } },
{ "type": "Feature", "properties": { "full_id": "n6508719289", "osm_id": "6508719289", "osm_type": "node", "name": "Yeşilpınar", "railway": "stop", "constructi": null, "public_tra": "stop_position", "subway": "yes", "train": null, "network": null, "station": null, "wheelchair": null }, "geometry": { "type": "Point", "coordinates": [ 28.9184305, 41.0822186 ] } },
{ "type": "Feature", "properties": { "full_id": "n6508719290", "osm_id": "6508719290", "osm_type": "node", "name": "Yeşilpınar", "railway": "stop", "constructi": null, "public_tra": "stop_position", "subway": "yes", "train": null, "network": null, "station": null, "wheelchair": null }, "geometry": { "type": "Point", "coordinates": [ 28.9184819, 41.0823955 ] } },
{ "type": "Feature", "properties": { "full_id": "n6508719327", "osm_id": "6508719327", "osm_type": "node", "name": "Veysel Karani-Akşemsettin", "railway": "stop", "constructi": null, "public_tra": "stop_position", "subway": "yes", "train": null, "network": null, "station": null, "wheelchair": null }, "geometry": { "type": "Point", "coordinates": [ 28.9280161, 41.0795175 ] } },
{ "type": "Feature", "properties": { "full_id": "n6508719328", "osm_id": "6508719328", "osm_type": "node", "name": "Veysel Karani-Akşemsettin", "railway": "stop", "constructi": null, "public_tra": "stop_position", "subway": "yes", "train": null, "network": null, "station": null, "wheelchair": null }, "geometry": { "type": "Point", "coordinates": [ 28.9279439, 41.079784 ] } },
{ "type": "Feature", "properties": { "full_id": "n6508719329", "osm_id": "6508719329", "osm_type": "node", "name": "Çırçır Mahallesi", "railway": "stop", "constructi": null, "public_tra": "stop_position", "subway": "yes", "train": null, "network": null, "station": null, "wheelchair": null }, "geometry": { "type": "Point", "coordinates": [ 28.9358169, 41.0798093 ] } },
{ "type": "Feature", "properties": { "full_id": "n6508719330", "osm_id": "6508719330", "osm_type": "node", "name": "Çırçır Mahallesi", "railway": "stop", "constructi": null, "public_tra": "stop_position", "subway": "yes", "train": null, "network": null, "station": null, "wheelchair": null }, "geometry": { "type": "Point", "coordinates": [ 28.9358477, 41.0800712 ] } },
{ "type": "Feature", "properties": { "full_id": "n6513090626", "osm_id": "6513090626", "osm_type": "node", "name": "Kâzım Karabekir", "railway": null, "constructi": null, "public_tra": "stop_position", "subway": "yes", "train": null, "network": null, "station": null, "wheelchair": null }, "geometry": { "type": "Point", "coordinates": [ 28.9084478, 41.085274 ] } },
{ "type": "Feature", "properties": { "full_id": "n6513090627", "osm_id": "6513090627", "osm_type": "node", "name": "Kâzım Karabekir", "railway": "stop", "constructi": null, "public_tra": "stop_position", "subway": "yes", "train": null, "network": null, "station": null, "wheelchair": null }, "geometry": { "type": "Point", "coordinates": [ 28.9085465, 41.0854613 ] } },
{ "type": "Feature", "properties": { "full_id": "n6974703487", "osm_id": "6974703487", "osm_type": "node", "name": "Kabataş", "railway": "construction", "constructi": "station", "public_tra": null, "subway": null, "train": null, "network": null, "station": null, "wheelchair": null }, "geometry": { "type": "Point", "coordinates": [ 28.9918095, 41.0330304 ] } },
{ "type": "Feature", "properties": { "full_id": "n6974703488", "osm_id": "6974703488", "osm_type": "node", "name": "Beşiktaş", "railway": "construction", "constructi": "station", "public_tra": null, "subway": null, "train": null, "network": null, "station": null, "wheelchair": null }, "geometry": { "type": "Point", "coordinates": [ 29.0074521, 41.0434414 ] } },
{ "type": "Feature", "properties": { "full_id": "n7726641181", "osm_id": "7726641181", "osm_type": "node", "name": "Tekstilkent-Giyimkent", "railway": "stop", "constructi": null, "public_tra": "stop_position", "subway": "yes", "train": null, "network": null, "station": null, "wheelchair": null }, "geometry": { "type": "Point", "coordinates": [ 28.8668716, 41.0712706 ] } },
{ "type": "Feature", "properties": { "full_id": "n7726641182", "osm_id": "7726641182", "osm_type": "node", "name": "Mahmutbey", "railway": "stop", "constructi": null, "public_tra": "stop_position", "subway": "yes", "train": null, "network": null, "station": null, "wheelchair": null }, "geometry": { "type": "Point", "coordinates": [ 28.8310713, 41.0551514 ] } },
{ "type": "Feature", "properties": { "full_id": "n7726641183", "osm_id": "7726641183", "osm_type": "node", "name": "Mahmutbey", "railway": "stop", "constructi": null, "public_tra": "stop_position", "subway": "yes", "train": null, "network": null, "station": null, "wheelchair": null }, "geometry": { "type": "Point", "coordinates": [ 28.8309613, 41.0549348 ] } },
{ "type": "Feature", "properties": { "full_id": "n7726686085", "osm_id": "7726686085", "osm_type": "node", "name": "Yenimahalle", "railway": "stop", "constructi": null, "public_tra": "stop_position", "subway": "yes", "train": null, "network": null, "station": null, "wheelchair": null }, "geometry": { "type": "Point", "coordinates": [ 28.8928118, 41.0839716 ] } },
{ "type": "Feature", "properties": { "full_id": "n7726686086", "osm_id": "7726686086", "osm_type": "node", "name": "Yenimahalle", "railway": "stop", "constructi": null, "public_tra": "stop_position", "subway": "yes", "train": null, "network": null, "station": null, "wheelchair": null }, "geometry": { "type": "Point", "coordinates": [ 28.8926804, 41.0838186 ] } },
{ "type": "Feature", "properties": { "full_id": "n7726686087", "osm_id": "7726686087", "osm_type": "node", "name": "Karadeniz Mahallesi", "railway": "stop", "constructi": null, "public_tra": "stop_position", "subway": "yes", "train": null, "network": null, "station": null, "wheelchair": null }, "geometry": { "type": "Point", "coordinates": [ 28.8752154, 41.0811567 ] } },
{ "type": "Feature", "properties": { "full_id": "n7726686088", "osm_id": "7726686088", "osm_type": "node", "name": "Karadeniz Mahallesi", "railway": "stop", "constructi": null, "public_tra": "stop_position", "subway": "yes", "train": null, "network": null, "station": null, "wheelchair": null }, "geometry": { "type": "Point", "coordinates": [ 28.8749302, 41.0813391 ] } },
{ "type": "Feature", "properties": { "full_id": "n7726686089", "osm_id": "7726686089", "osm_type": "node", "name": "Tekstilkent-Giyimkent", "railway": "stop", "constructi": null, "public_tra": "stop_position", "subway": "yes", "train": null, "network": null, "station": null, "wheelchair": null }, "geometry": { "type": "Point", "coordinates": [ 28.8670532, 41.0711302 ] } },
{ "type": "Feature", "properties": { "full_id": "n7726686091", "osm_id": "7726686091", "osm_type": "node", "name": "Yüzyıl-Oruç Reis", "railway": "stop", "constructi": null, "public_tra": "stop_position", "subway": "yes", "train": null, "network": null, "station": null, "wheelchair": null }, "geometry": { "type": "Point", "coordinates": [ 28.8556818, 41.0624235 ] } },
{ "type": "Feature", "properties": { "full_id": "n7726686092", "osm_id": "7726686092", "osm_type": "node", "name": "Yüzyıl-Oruç Reis", "railway": "stop", "constructi": null, "public_tra": "stop_position", "subway": "yes", "train": null, "network": null, "station": null, "wheelchair": null }, "geometry": { "type": "Point", "coordinates": [ 28.8553307, 41.0624674 ] } },
{ "type": "Feature", "properties": { "full_id": "n7726686094", "osm_id": "7726686094", "osm_type": "node", "name": "Göztepe Mahallesi", "railway": "stop", "constructi": null, "public_tra": "stop_position", "subway": "yes", "train": null, "network": null, "station": null, "wheelchair": null }, "geometry": { "type": "Point", "coordinates": [ 28.8479642, 41.0569568 ] } },
{ "type": "Feature", "properties": { "full_id": "n7726686095", "osm_id": "7726686095", "osm_type": "node", "name": "Göztepe Mahallesi", "railway": "stop", "constructi": null, "public_tra": "stop_position", "subway": "yes", "train": null, "network": null, "station": null, "wheelchair": null }, "geometry": { "type": "Point", "coordinates": [ 28.8481022, 41.0567295 ] } }
]
}
