{
"type": "FeatureCollection",
"name": "istanbul-m4-phase-3-stops",
"crs": { "type": "name", "properties": { "name": "urn:ogc:def:crs:OGC:1.3:CRS84" } },
"features": [
{ "type": "Feature", "properties": { "full_id": "n6312448730", "osm_id": "6312448730", "osm_type": "node", "name": "Yayalar", "railway": "construction", "wikidata": "Q100411596", "wikipedia": "tr:Yayalar (İstanbul metrosu)", "construction": "", "public_transport": "", "subway": "" }, "geometry": { "type": "Point", "coordinates": [ 29.2757315, 40.9040077 ] } },
{ "type": "Feature", "properties": { "full_id": "n6312448731", "osm_id": "6312448731", "osm_type": "node", "name": "Sabiha Gökçen Havalimanı", "railway": "construction", "wikidata": "Q97208556", "wikipedia": "tr:Sabiha Gökçen Havalimanı (İstanbul metrosu)", "construction": "", "public_transport": "", "subway": "" }, "geometry": { "type": "Point", "coordinates": [ 29.3114591, 40.9065703 ] } },
{ "type": "Feature", "properties": { "full_id": "n6312448729", "osm_id": "6312448729", "osm_type": "node", "name": "Fevzi Çakmak", "railway": "construction", "wikidata": "Q100411508", "wikipedia": "tr:Fevzi Çakmak (İstanbul metrosu)", "construction": "", "public_transport": "", "subway": "" }, "geometry": { "type": "Point", "coordinates": [ 29.2624488, 40.8888333 ] } },
{ "type": "Feature", "properties": { "full_id": "n6364525813", "osm_id": "6364525813", "osm_type": "node", "name": "Kurtköy", "railway": "construction", "wikidata": "Q100411666", "wikipedia": "tr:Kurtköy (İstanbul metrosu)", "construction": "", "public_transport": "", "subway": "" }, "geometry": { "type": "Point", "coordinates": [ 29.2967977, 40.9096968 ] } },
{ "type": "Feature", "properties": { "full_id": null, "osm_id": null, "osm_type": null, "name": "Tavsantepe", "railway": null, "wikidata": null, "wikipedia": null, "construction": null, "public_transport": null, "subway": null }, "geometry": { "type": "Point", "coordinates": [ 29.24967270372996, 40.881792517364744 ] } }
]
}
