{
"type": "FeatureCollection",
"name": "istanbul-m5-phase-2-m13-stops",
"crs": { "type": "name", "properties": { "name": "urn:ogc:def:crs:OGC:1.3:CRS84" } },
"features": [
{ "type": "Feature", "properties": { "full_id": "n6931519895", "osm_id": "6931519895", "osm_type": "node", "name": "Sancaktepe Şehir Hastanesi", "railway": "construction", "wikidata": "Q100411047", "wikipedia": "tr:Sancaktepe Şehir Hastanesi (İstanbul metrosu)", "construction": "", "public_transport": "", "subway": "" }, "geometry": { "type": "Point", "coordinates": [ 29.2174222, 41.0012155 ] } },
{ "type": "Feature", "properties": { "full_id": "n6932303042", "osm_id": "6932303042", "osm_type": "node", "name": "Sultanbeyli", "railway": "construction", "wikidata": "Q100411406", "wikipedia": "tr:Sultanbeyli (İstanbul metrosu)", "construction": "", "public_transport": "", "subway": "" }, "geometry": { "type": "Point", "coordinates": [ 29.2725415, 40.9661192 ] } },
{ "type": "Feature", "properties": { "full_id": "n6932303048", "osm_id": "6932303048", "osm_type": "node", "name": "Hasanpaşa", "railway": "construction", "wikidata": "Q100411350", "wikipedia": "tr:Hasanpaşa (İstanbul metrosu)", "construction": "", "public_transport": "", "subway": "" }, "geometry": { "type": "Point", "coordinates": [ 29.2551526, 40.9687135 ] } },
{ "type": "Feature", "properties": { "full_id": "n6932303056", "osm_id": "6932303056", "osm_type": "node", "name": "Veysel Karani", "railway": "construction", "wikidata": "Q100411219", "wikipedia": "tr:Veysel Karani (İstanbul metrosu)", "construction": "", "public_transport": "", "subway": "" }, "geometry": { "type": "Point", "coordinates": [ 29.2400704, 40.9690308 ] } },
{ "type": "Feature", "properties": { "full_id": "n6932303066", "osm_id": "6932303066", "osm_type": "node", "name": "Samandıra Merkez", "railway": "construction", "wikidata": "Q100411162", "wikipedia": "tr:Samandıra Merkez (İstanbul metrosu)", "construction": "", "public_transport": "", "subway": "" }, "geometry": { "type": "Point", "coordinates": [ 29.2314461, 40.9836302 ] } },
{ "type": "Feature", "properties": { "full_id": "n6932303073", "osm_id": "6932303073", "osm_type": "node", "name": "Sancaktepe", "railway": "construction", "wikidata": "Q100411105", "wikipedia": "tr:Sancaktepe (İstanbul metrosu)", "construction": "", "public_transport": "", "subway": "" }, "geometry": { "type": "Point", "coordinates": [ 29.2291167, 40.9918573 ] } },
{ "type": "Feature", "properties": { "full_id": "n6932303082", "osm_id": "6932303082", "osm_type": "node", "name": "Sarıgazi", "railway": "construction", "wikidata": "Q100410711", "wikipedia": "tr:Sarıgazi (İstanbul metrosu)", "construction": "", "public_transport": "", "subway": "" }, "geometry": { "type": "Point", "coordinates": [ 29.2120596, 41.0102031 ] } },
{ "type": "Feature", "properties": { "full_id": "n6932313803", "osm_id": "6932313803", "osm_type": "node", "name": "Meclis", "railway": "construction", "wikidata": "Q100410801", "wikipedia": "tr:Meclis (İstanbul metrosu)", "construction": "", "public_transport": "", "subway": "" }, "geometry": { "type": "Point", "coordinates": [ 29.1987882, 41.0095762 ] } }
]
}
