{
"type": "FeatureCollection",
"name": "kunming-line-6-stops",
"crs": { "type": "name", "properties": { "name": "urn:ogc:def:crs:OGC:1.3:CRS84" } },
"features": [
{ "type": "Feature", "properties": { "full_id": "n2078265098", "osm_id": "2078265098", "osm_type": "node", "name": "Kunming Airport", "name:en": "Kunming Airport", "name:zh": "机场中心", "network": "昆明轨道交通", "network:en": "Kunming Rail Transit", "public_transport": "stop_position", "railway": "station", "station": "subway", "subway": "yes", "transport": "subway", "wikidata": "", "description": "", "access": "" }, "geometry": { "type": "Point", "coordinates": [ 102.9262889, 25.0985898 ] } },
{ "type": "Feature", "properties": { "full_id": "n7385559756", "osm_id": "7385559756", "osm_type": "node", "name": "Dongjiao Road", "name:en": "Dongjiao Road", "name:zh": "", "network": "", "network:en": "", "public_transport": "station", "railway": "station", "station": "subway", "subway": "yes", "transport": "", "wikidata": "", "description": "", "access": "" }, "geometry": { "type": "Point", "coordinates": [ 102.7423275, 25.0300985 ] } },
{ "type": "Feature", "properties": { "full_id": "n4576702060", "osm_id": "4576702060", "osm_type": "node", "name": "Juhua", "name:en": "Juhua", "name:zh": "", "network": "", "network:en": "", "public_transport": "stop_position", "railway": "stop", "station": "", "subway": "yes", "transport": "", "wikidata": "", "description": "Line 6 stop position", "access": "" }, "geometry": { "type": "Point", "coordinates": [ 102.7483039, 25.0280636 ] } },
{ "type": "Feature", "properties": { "full_id": "n4576702059", "osm_id": "4576702059", "osm_type": "node", "name": "Chajie", "name:en": "Chajie", "name:zh": "", "network": "", "network:en": "", "public_transport": "station", "railway": "station", "station": "subway", "subway": "yes", "transport": "", "wikidata": "", "description": "", "access": "" }, "geometry": { "type": "Point", "coordinates": [ 102.7326487, 25.034367 ] } },
{ "type": "Feature", "properties": { "full_id": "n4576702056", "osm_id": "4576702056", "osm_type": "node", "name": "Tangzixiang", "name:en": "Tangzixiang", "name:zh": "", "network": "", "network:en": "", "public_transport": "stop_position", "railway": "stop", "station": "", "subway": "yes", "transport": "", "wikidata": "", "description": "Line 6 stop position", "access": "" }, "geometry": { "type": "Point", "coordinates": [ 102.7187942, 25.0355444 ] } },
{ "type": "Feature", "properties": { "full_id": "n2078267849", "osm_id": "2078267849", "osm_type": "node", "name": "East Coach Station", "name:en": "East Coach Station", "name:zh": "", "network": "", "network:en": "", "public_transport": "stop_position", "railway": "", "station": "", "subway": "yes", "transport": "", "wikidata": "", "description": "", "access": "" }, "geometry": { "type": "Point", "coordinates": [ 102.7869422, 25.0390108 ] } },
{ "type": "Feature", "properties": { "full_id": null, "osm_id": null, "osm_type": null, "name": "Dabanqiao (new)", "name:en": null, "name:zh": null, "network": null, "network:en": null, "public_transport": null, "railway": null, "station": null, "subway": null, "transport": null, "wikidata": null, "description": null, "access": null }, "geometry": { "type": "Point", "coordinates": [ 102.875154008245516, 25.056391454200742 ] } },
{ "type": "Feature", "properties": { "full_id": null, "osm_id": null, "osm_type": null, "name": "Jichangqian (new)", "name:en": null, "name:zh": null, "network": null, "network:en": null, "public_transport": null, "railway": null, "station": null, "subway": null, "transport": null, "wikidata": null, "description": null, "access": null }, "geometry": { "type": "Point", "coordinates": [ 102.911366796824126, 25.088199537865172 ] } }
]
}
