{
"type": "FeatureCollection",
"name": "mumbai-line-2b-stops",
"crs": { "type": "name", "properties": { "name": "urn:ogc:def:crs:OGC:1.3:CRS84" } },
"features": [
{ "type": "Feature", "properties": { "full_id": "n5219622644", "osm_id": "5219622644", "osm_type": "node", "construction": "station", "name": "SG Barve Marg", "railway": "construction", "man_made": "" }, "geometry": { "type": "Point", "coordinates": [ 72.8774422, 19.0759254 ] } },
{ "type": "Feature", "properties": { "full_id": "n5219622658", "osm_id": "5219622658", "osm_type": "node", "construction": "station", "name": "MTNL", "railway": "construction", "man_made": "" }, "geometry": { "type": "Point", "coordinates": [ 72.8711549, 19.0707498 ] } },
{ "type": "Feature", "properties": { "full_id": "n5219622663", "osm_id": "5219622663", "osm_type": "node", "construction": "station", "name": "IL&FS", "railway": "construction", "man_made": "" }, "geometry": { "type": "Point", "coordinates": [ 72.8600383, 19.0636424 ] } },
{ "type": "Feature", "properties": { "full_id": "n5219622677", "osm_id": "5219622677", "osm_type": "node", "construction": "station", "name": "MMRDA", "railway": "construction", "man_made": "" }, "geometry": { "type": "Point", "coordinates": [ 72.8493837, 19.0540189 ] } },
{ "type": "Feature", "properties": { "full_id": "n5219622821", "osm_id": "5219622821", "osm_type": "node", "construction": "station", "name": "Indira Nagar", "railway": "construction", "man_made": "" }, "geometry": { "type": "Point", "coordinates": [ 72.8368664, 19.1028878 ] } },
{ "type": "Feature", "properties": { "full_id": "n5219622841", "osm_id": "5219622841", "osm_type": "node", "construction": "station", "name": "ESIC Nagar", "railway": "construction", "man_made": "" }, "geometry": { "type": "Point", "coordinates": [ 72.8298593, 19.116574 ] } },
{ "type": "Feature", "properties": { "full_id": "n5219622332", "osm_id": "5219622332", "osm_type": "node", "construction": "station", "name": "National College", "railway": "construction", "man_made": "" }, "geometry": { "type": "Point", "coordinates": [ 72.8373113, 19.0648223 ] } },
{ "type": "Feature", "properties": { "full_id": "n5219622334", "osm_id": "5219622334", "osm_type": "node", "construction": "station", "name": "Nanavati Hospital", "railway": "construction", "man_made": "" }, "geometry": { "type": "Point", "coordinates": [ 72.8395036, 19.0960631 ] } },
{ "type": "Feature", "properties": { "full_id": "n5219622335", "osm_id": "5219622335", "osm_type": "node", "construction": "station", "name": "Prem Nagar", "railway": "construction", "man_made": "" }, "geometry": { "type": "Point", "coordinates": [ 72.8371125, 19.109986 ] } },
{ "type": "Feature", "properties": { "full_id": "n5219622321", "osm_id": "5219622321", "osm_type": "node", "construction": "station", "name": "Chembur", "railway": "construction", "man_made": "" }, "geometry": { "type": "Point", "coordinates": [ 72.8945902, 19.0540494 ] } },
{ "type": "Feature", "properties": { "full_id": "n5219622323", "osm_id": "5219622323", "osm_type": "node", "construction": "station", "name": "ITO", "railway": "construction", "man_made": "" }, "geometry": { "type": "Point", "coordinates": [ 72.8544509, 19.058934 ] } },
{ "type": "Feature", "properties": { "full_id": "n5219622324", "osm_id": "5219622324", "osm_type": "node", "construction": "station", "name": "Bandra", "railway": "", "man_made": "crane" }, "geometry": { "type": "Point", "coordinates": [ 72.8381496, 19.0526677 ] } },
{ "type": "Feature", "properties": { "full_id": "n5219622325", "osm_id": "5219622325", "osm_type": "node", "construction": "station", "name": "Saraswat Nagar", "railway": "construction", "man_made": "" }, "geometry": { "type": "Point", "coordinates": [ 72.8375532, 19.0746681 ] } },
{ "type": "Feature", "properties": { "full_id": "n5219622327", "osm_id": "5219622327", "osm_type": "node", "construction": "station", "name": "Khira Nagar", "railway": "construction", "man_made": "" }, "geometry": { "type": "Point", "coordinates": [ 72.8379589, 19.0829188 ] } },
{ "type": "Feature", "properties": { "full_id": "n5219622356", "osm_id": "5219622356", "osm_type": "node", "construction": "station", "name": "Mandale", "railway": "construction", "man_made": "" }, "geometry": { "type": "Point", "coordinates": [ 72.9391851, 19.049127 ] } },
{ "type": "Feature", "properties": { "full_id": "n5219622365", "osm_id": "5219622365", "osm_type": "node", "construction": "station", "name": "Mankhurd", "railway": "construction", "man_made": "" }, "geometry": { "type": "Point", "coordinates": [ 72.9312486, 19.0491999 ] } },
{ "type": "Feature", "properties": { "full_id": "n5219622373", "osm_id": "5219622373", "osm_type": "node", "construction": "station", "name": "BSNL", "railway": "construction", "man_made": "" }, "geometry": { "type": "Point", "coordinates": [ 72.9222546, 19.0434958 ] } },
{ "type": "Feature", "properties": { "full_id": "n5219622383", "osm_id": "5219622383", "osm_type": "node", "construction": "station", "name": "Shivaji Chowk", "railway": "construction", "man_made": "" }, "geometry": { "type": "Point", "coordinates": [ 72.9091656, 19.0459788 ] } },
{ "type": "Feature", "properties": { "full_id": "n5219622393", "osm_id": "5219622393", "osm_type": "node", "construction": "station", "name": "Diamond Garden", "railway": "construction", "man_made": "" }, "geometry": { "type": "Point", "coordinates": [ 72.8999603, 19.0523618 ] } },
{ "type": "Feature", "properties": { "full_id": "n5219622408", "osm_id": "5219622408", "osm_type": "node", "construction": "station", "name": "EEH", "railway": "construction", "man_made": "" }, "geometry": { "type": "Point", "coordinates": [ 72.8870599, 19.0572366 ] } },
{ "type": "Feature", "properties": { "full_id": "n5219622419", "osm_id": "5219622419", "osm_type": "node", "construction": "station", "name": "Kurla", "railway": "construction", "man_made": "" }, "geometry": { "type": "Point", "coordinates": [ 72.8847136, 19.0629954 ] } },
{ "type": "Feature", "properties": { "full_id": "n5219622634", "osm_id": "5219622634", "osm_type": "node", "construction": "station", "name": "Kurla Terminal", "railway": "construction", "man_made": "" }, "geometry": { "type": "Point", "coordinates": [ 72.8850871, 19.071817 ] } }
]
}
