{
"type": "FeatureCollection",
"name": "panamacity-line-1-stops",
"crs": { "type": "name", "properties": { "name": "urn:ogc:def:crs:OGC:1.3:CRS84" } },
"features": [
{ "type": "Feature", "properties": { "full_id": "n2618111169", "osm_id": "2618111169", "osm_type": "node", "highway": "", "traffic_signals": "", "name": "Albrook", "public_transport": "stop_position", "railway": "stop", "subway": "yes", "operator": "" }, "geometry": { "type": "Point", "coordinates": [ -79.5495269, 8.9732439 ] } },
{ "type": "Feature", "properties": { "full_id": "n2618136969", "osm_id": "2618136969", "osm_type": "node", "highway": "", "traffic_signals": "", "name": "Lotería", "public_transport": "stop_position", "railway": "", "subway": "yes", "operator": "Metro de Panamá" }, "geometry": { "type": "Point", "coordinates": [ -79.5353752, 8.968382 ] } },
{ "type": "Feature", "properties": { "full_id": "n2618151444", "osm_id": "2618151444", "osm_type": "node", "highway": "", "traffic_signals": "", "name": "Santo Tomás", "public_transport": "stop_position", "railway": "", "subway": "yes", "operator": "" }, "geometry": { "type": "Point", "coordinates": [ -79.5328235, 8.9727066 ] } },
{ "type": "Feature", "properties": { "full_id": "n2618155174", "osm_id": "2618155174", "osm_type": "node", "highway": "", "traffic_signals": "", "name": "Iglesia del Carmen", "public_transport": "stop_position", "railway": "", "subway": "yes", "operator": "" }, "geometry": { "type": "Point", "coordinates": [ -79.5270257, 8.9824906 ] } },
{ "type": "Feature", "properties": { "full_id": "n2618155175", "osm_id": "2618155175", "osm_type": "node", "highway": "", "traffic_signals": "", "name": "Vía Argentina", "public_transport": "stop_position", "railway": "stop", "subway": "yes", "operator": "" }, "geometry": { "type": "Point", "coordinates": [ -79.5226937, 8.9887926 ] } },
{ "type": "Feature", "properties": { "full_id": "n2618155177", "osm_id": "2618155177", "osm_type": "node", "highway": "", "traffic_signals": "", "name": "12 de Octubre", "public_transport": "stop_position", "railway": "stop", "subway": "yes", "operator": "" }, "geometry": { "type": "Point", "coordinates": [ -79.5173756, 9.0168064 ] } },
{ "type": "Feature", "properties": { "full_id": "n2618155178", "osm_id": "2618155178", "osm_type": "node", "highway": "", "traffic_signals": "", "name": "Pueblo Nuevo", "public_transport": "stop_position", "railway": "stop", "subway": "yes", "operator": "" }, "geometry": { "type": "Point", "coordinates": [ -79.5126622, 9.0233718 ] } },
{ "type": "Feature", "properties": { "full_id": "n2618155816", "osm_id": "2618155816", "osm_type": "node", "highway": "", "traffic_signals": "", "name": "San Miguelito", "public_transport": "stop_position", "railway": "stop", "subway": "yes", "operator": "" }, "geometry": { "type": "Point", "coordinates": [ -79.5066098, 9.0299996 ] } },
{ "type": "Feature", "properties": { "full_id": "n2618155817", "osm_id": "2618155817", "osm_type": "node", "highway": "", "traffic_signals": "", "name": "Pan de Azúcar", "public_transport": "stop_position", "railway": "stop", "subway": "yes", "operator": "" }, "geometry": { "type": "Point", "coordinates": [ -79.5084128, 9.0410916 ] } },
{ "type": "Feature", "properties": { "full_id": "n3529301122", "osm_id": "3529301122", "osm_type": "node", "highway": "", "traffic_signals": "", "name": "Fernández de Córdoba", "public_transport": "stop_position", "railway": "", "subway": "yes", "operator": "" }, "geometry": { "type": "Point", "coordinates": [ -79.5198162, 8.997058 ] } },
{ "type": "Feature", "properties": { "full_id": "n5173156385", "osm_id": "5173156385", "osm_type": "node", "highway": "", "traffic_signals": "", "name": "Los Andes", "public_transport": "stop_position", "railway": "stop", "subway": "yes", "operator": "" }, "geometry": { "type": "Point", "coordinates": [ -79.5084064, 9.0491018 ] } },
{ "type": "Feature", "properties": { "full_id": "n5208805274", "osm_id": "5208805274", "osm_type": "node", "highway": "", "traffic_signals": "", "name": "Cinco de Mayo", "public_transport": "stop_position", "railway": "stop", "subway": "yes", "operator": "" }, "geometry": { "type": "Point", "coordinates": [ -79.5396077, 8.9625886 ] } }
]
}
