{
"type": "FeatureCollection",
"name": "wenzhou-s1-phase-1-stops",
"crs": { "type": "name", "properties": { "name": "urn:ogc:def:crs:OGC:1.3:CRS84" } },
"features": [
{ "type": "Feature", "properties": { "full_id": "n5960741602", "osm_id": "5960741602", "osm_type": "node", "name": "Panqiao", "name:en": "Panqiao", "railway": "station", "station": "subway", "subway": "yes", "public_transport": "station", "train": "", "access": "", "description": "" }, "geometry": { "type": "Point", "coordinates": [ 120.5699438, 27.9442277 ] } },
{ "type": "Feature", "properties": { "full_id": "n5960741603", "osm_id": "5960741603", "osm_type": "node", "name": "Tongling", "name:en": "Tongling", "railway": "station", "station": "subway", "subway": "yes", "public_transport": "station", "train": "yes", "access": "", "description": "" }, "geometry": { "type": "Point", "coordinates": [ 120.5648324, 27.9242957 ] } },
{ "type": "Feature", "properties": { "full_id": "n7038874068", "osm_id": "7038874068", "osm_type": "node", "name": "Xinqiao", "name:en": "Xinqiao", "railway": "", "station": "", "subway": "yes", "public_transport": "stop_position", "train": "", "access": "", "description": "" }, "geometry": { "type": "Point", "coordinates": [ 120.6236224, 27.9808732 ] } },
{ "type": "Feature", "properties": { "full_id": "n5960741597", "osm_id": "5960741597", "osm_type": "node", "name": "Longxia Road", "name:en": "Longxia Road", "railway": "station", "station": "subway", "subway": "yes", "public_transport": "station", "train": "", "access": "", "description": "" }, "geometry": { "type": "Point", "coordinates": [ 120.6653537, 27.9826015 ] } },
{ "type": "Feature", "properties": { "full_id": "n5960741598", "osm_id": "5960741598", "osm_type": "node", "name": "Huimin Road", "name:en": "Huimin Road", "railway": "station", "station": "subway", "subway": "yes", "public_transport": "station", "train": "", "access": "", "description": "" }, "geometry": { "type": "Point", "coordinates": [ 120.6929322, 27.9829402 ] } },
{ "type": "Feature", "properties": { "full_id": "n5960741599", "osm_id": "5960741599", "osm_type": "node", "name": "Sanyang Wetland", "name:en": "Sanyang Wetland", "railway": "station", "station": "subway", "subway": "yes", "public_transport": "station", "train": "", "access": "", "description": "" }, "geometry": { "type": "Point", "coordinates": [ 120.7098395, 27.9763209 ] } },
{ "type": "Feature", "properties": { "full_id": "n5960741601", "osm_id": "5960741601", "osm_type": "node", "name": "South Railway Station", "name:en": "South Railway Station", "railway": "station", "station": "subway", "subway": "yes", "public_transport": "station", "train": "", "access": "", "description": "" }, "geometry": { "type": "Point", "coordinates": [ 120.5799079, 27.9700992 ] } },
{ "type": "Feature", "properties": { "full_id": "n5327011660", "osm_id": "5327011660", "osm_type": "node", "name": "Yongzhong", "name:en": "Yongzhong", "railway": "station", "station": "subway", "subway": "yes", "public_transport": "", "train": "", "access": "", "description": "" }, "geometry": { "type": "Point", "coordinates": [ 120.8238655, 27.9118083 ] } },
{ "type": "Feature", "properties": { "full_id": "n5327011676", "osm_id": "5327011676", "osm_type": "node", "name": "Yaoxi", "name:en": "Yaoxi", "railway": "station", "station": "subway", "subway": "yes", "public_transport": "station", "train": "yes", "access": "", "description": "" }, "geometry": { "type": "Point", "coordinates": [ 120.7788956, 27.9336592 ] } },
{ "type": "Feature", "properties": { "full_id": "n5327011921", "osm_id": "5327011921", "osm_type": "node", "name": "Longteng Road", "name:en": "Longteng Road", "railway": "station", "station": "subway", "subway": "yes", "public_transport": "station", "train": "yes", "access": "", "description": "" }, "geometry": { "type": "Point", "coordinates": [ 120.7587522, 27.9619072 ] } },
{ "type": "Feature", "properties": { "full_id": "n5960741596", "osm_id": "5960741596", "osm_type": "node", "name": "Dezheng", "name:en": "Dezheng", "railway": "station", "station": "subway", "subway": "yes", "public_transport": "station", "train": "", "access": "", "description": "" }, "geometry": { "type": "Point", "coordinates": [ 120.646031, 27.9792759 ] } },
{ "type": "Feature", "properties": { "full_id": "n5327010602", "osm_id": "5327010602", "osm_type": "node", "name": "Shuang'ou Avenue", "name:en": "Shuang'ou Avenue", "railway": "station", "station": "subway", "subway": "yes", "public_transport": "", "train": "", "access": "", "description": "" }, "geometry": { "type": "Point", "coordinates": [ 120.9494261, 27.921477 ] } },
{ "type": "Feature", "properties": { "full_id": "n5327010620", "osm_id": "5327010620", "osm_type": "node", "name": "Kejicheng", "name:en": "Kejicheng", "railway": "station", "station": "subway", "subway": "yes", "public_transport": "station", "train": "yes", "access": "", "description": "" }, "geometry": { "type": "Point", "coordinates": [ 120.7801455, 27.9579555 ] } },
{ "type": "Feature", "properties": { "full_id": "n5327011635", "osm_id": "5327011635", "osm_type": "node", "name": "Olympic Center", "name:en": "Olympic Center", "railway": "station", "station": "subway", "subway": "yes", "public_transport": "station", "train": "", "access": "", "description": "" }, "geometry": { "type": "Point", "coordinates": [ 120.8068644, 27.9188745 ] } },
{ "type": "Feature", "properties": { "full_id": "n5327011656", "osm_id": "5327011656", "osm_type": "node", "name": "Airport", "name:en": "Airport", "railway": "station", "station": "subway", "subway": "yes", "public_transport": "station", "train": "", "access": "", "description": "" }, "geometry": { "type": "Point", "coordinates": [ 120.8426624, 27.9090968 ] } },
{ "type": "Feature", "properties": { "full_id": "n5327010588", "osm_id": "5327010588", "osm_type": "node", "name": "Lingkun", "name:en": "Lingkun", "railway": "station", "station": "subway", "subway": "yes", "public_transport": "", "train": "", "access": "", "description": "" }, "geometry": { "type": "Point", "coordinates": [ 120.8879042, 27.9564756 ] } },
{ "type": "Feature", "properties": { "full_id": "n5327010600", "osm_id": "5327010600", "osm_type": "node", "name": "Oufan", "name:en": "", "railway": "station", "station": "subway", "subway": "yes", "public_transport": "station", "train": "", "access": "", "description": "" }, "geometry": { "type": "Point", "coordinates": [ 120.9309268, 27.9338196 ] } },
{ "type": "Feature", "properties": { "full_id": "n5327010601", "osm_id": "5327010601", "osm_type": "node", "name": "Ouyang", "name:en": "", "railway": "station", "station": "subway", "subway": "yes", "public_transport": "", "train": "", "access": "", "description": "" }, "geometry": { "type": "Point", "coordinates": [ 120.9157795, 27.9438793 ] } },
{ "type": "Feature", "properties": { "full_id": null, "osm_id": null, "osm_type": null, "name": "Wenzhou Railway Station (open soon)", "name:en": null, "railway": null, "station": null, "subway": null, "public_transport": null, "train": null, "access": null, "description": null }, "geometry": { "type": "Point", "coordinates": [ 120.681041589702147, 27.98282119119677 ] } },
{ "type": "Feature", "properties": { "full_id": null, "osm_id": null, "osm_type": null, "name": "Xiuyu (location may change; open soon)", "name:en": null, "railway": null, "station": null, "subway": null, "public_transport": null, "train": null, "access": null, "description": null }, "geometry": { "type": "Point", "coordinates": [ 120.594551289559618, 27.984344663229372 ] } },
{ "type": "Feature", "properties": { "full_id": null, "osm_id": null, "osm_type": null, "name": "Wenchanglu (open soon)", "name:en": null, "railway": null, "station": null, "subway": null, "public_transport": null, "train": null, "access": null, "description": null }, "geometry": { "type": "Point", "coordinates": [ 120.725625209597126, 27.971376764719345 ] } }
]
}
