{
"type": "FeatureCollection",
"name": "wuhan-line-7-south-stops",
"crs": { "type": "name", "properties": { "name": "urn:ogc:def:crs:OGC:1.3:CRS84" } },
"features": [
{ "type": "Feature", "properties": { "full_id": "n6169173889", "osm_id": "6169173889", "osm_type": "node", "name": "Zhifang Avenue", "name:en": "Zhifang Avenue", "public_transport": "", "subway": "", "railway": "station", "station": "subway", "wikidata": "", "access": "", "description": "", "name:zh": "", "network": "", "operator": "", "int_name": "", "highway": "", "traffic_signals": "" }, "geometry": { "type": "Point", "coordinates": [ 114.3191597, 30.3476794 ] } },
{ "type": "Feature", "properties": { "full_id": "n6169173548", "osm_id": "6169173548", "osm_type": "node", "name": "Xinlucun", "name:en": "Xinlucun", "public_transport": "", "subway": "", "railway": "station", "station": "subway", "wikidata": "", "access": "", "description": "", "name:zh": "", "network": "", "operator": "", "int_name": "", "highway": "", "traffic_signals": "" }, "geometry": { "type": "Point", "coordinates": [ 114.3128366, 30.4442843 ] } },
{ "type": "Feature", "properties": { "full_id": "n6169173886", "osm_id": "6169173886", "osm_type": "node", "name": "Beihua Street", "name:en": "Beihua Street", "public_transport": "", "subway": "", "railway": "station", "station": "subway", "wikidata": "", "access": "", "description": "", "name:zh": "", "network": "", "operator": "", "int_name": "", "highway": "", "traffic_signals": "" }, "geometry": { "type": "Point", "coordinates": [ 114.3181884, 30.3604862 ] } },
{ "type": "Feature", "properties": { "full_id": "n6169173582", "osm_id": "6169173582", "osm_type": "node", "name": "Tanxinpei Park", "name:en": "Tanxinpei Park", "public_transport": "", "subway": "", "railway": "station", "station": "subway", "wikidata": "", "access": "", "description": "", "name:zh": "", "network": "", "operator": "", "int_name": "", "highway": "", "traffic_signals": "" }, "geometry": { "type": "Point", "coordinates": [ 114.3163829, 30.374197 ] } },
{ "type": "Feature", "properties": { "full_id": "n6169173574", "osm_id": "6169173574", "osm_type": "node", "name": "Jiangxiaketing", "name:en": "Jiangxiaketing", "public_transport": "", "subway": "", "railway": "station", "station": "subway", "wikidata": "", "access": "", "description": "", "name:zh": "", "network": "", "operator": "", "int_name": "", "highway": "", "traffic_signals": "" }, "geometry": { "type": "Point", "coordinates": [ 114.3163546, 30.3906779 ] } },
{ "type": "Feature", "properties": { "full_id": "n6169173562", "osm_id": "6169173562", "osm_type": "node", "name": "Dahualing", "name:en": "Dahualing", "public_transport": "", "subway": "", "railway": "station", "station": "subway", "wikidata": "", "access": "", "description": "", "name:zh": "", "network": "", "operator": "", "int_name": "", "highway": "", "traffic_signals": "" }, "geometry": { "type": "Point", "coordinates": [ 114.3147053, 30.4148722 ] } },
{ "type": "Feature", "properties": { "full_id": "n6169173907", "osm_id": "6169173907", "osm_type": "node", "name": "Qinglongshan Ditiexiaozhen", "name:en": "Qinglongshan Ditiexiaozhen", "public_transport": "", "subway": "", "railway": "station", "station": "subway", "wikidata": "", "access": "", "description": "", "name:zh": "", "network": "", "operator": "", "int_name": "", "highway": "", "traffic_signals": "" }, "geometry": { "type": "Point", "coordinates": [ 114.3284013, 30.3178668 ] } }
]
}
