{
"type": "FeatureCollection",
"name": "wuhan-line-2-phase-1-stops",
"crs": { "type": "name", "properties": { "name": "urn:ogc:def:crs:OGC:1.3:CRS84" } },
"features": [
{ "type": "Feature", "properties": { "full_id": "n2121217834", "osm_id": "2121217834", "osm_type": "node", "name": "Jinyintan", "name:en": "Jinyintan", "public_transport": "stop_position", "subway": "yes", "railway": "", "station": "", "wikidata": "", "access": "", "description": "", "name:zh": "", "network": "", "operator": "", "int_name": "", "highway": "", "traffic_signals": "" }, "geometry": { "type": "Point", "coordinates": [ 114.2377996, 30.6523298 ] } },
{ "type": "Feature", "properties": { "full_id": "n2398956481", "osm_id": "2398956481", "osm_type": "node", "name": "Zhongnan Road", "name:en": "Zhongnan Road", "public_transport": "stop_position", "subway": "yes", "railway": "stop", "station": "", "wikidata": "", "access": "", "description": "", "name:zh": "中南路站", "network": "", "operator": "", "int_name": "", "highway": "", "traffic_signals": "" }, "geometry": { "type": "Point", "coordinates": [ 114.3272763, 30.5398941 ] } },
{ "type": "Feature", "properties": { "full_id": "n2067995725", "osm_id": "2067995725", "osm_type": "node", "name": "Pangxiejia", "name:en": "Pangxiejia", "public_transport": "stop_position", "subway": "yes", "railway": "stop", "station": "", "wikidata": "", "access": "", "description": "", "name:zh": "", "network": "", "operator": "", "int_name": "", "highway": "", "traffic_signals": "" }, "geometry": { "type": "Point", "coordinates": [ 114.3121427, 30.556178 ] } },
{ "type": "Feature", "properties": { "full_id": "n5216469235", "osm_id": "5216469235", "osm_type": "node", "name": "Xunlimen", "name:en": "Xunlimen", "public_transport": "stop_position", "subway": "yes", "railway": "", "station": "", "wikidata": "", "access": "", "description": "", "name:zh": "", "network": "", "operator": "", "int_name": "", "highway": "", "traffic_signals": "" }, "geometry": { "type": "Point", "coordinates": [ 114.2811523, 30.5872666 ] } },
{ "type": "Feature", "properties": { "full_id": "n2398956491", "osm_id": "2398956491", "osm_type": "node", "name": "Guangbutun", "name:en": "Guangbutun", "public_transport": "stop_position", "subway": "yes", "railway": "stop", "station": "", "wikidata": "", "access": "", "description": "", "name:zh": "广埠屯站", "network": "", "operator": "", "int_name": "", "highway": "", "traffic_signals": "" }, "geometry": { "type": "Point", "coordinates": [ 114.3583709, 30.5249794 ] } },
{ "type": "Feature", "properties": { "full_id": "n2398956523", "osm_id": "2398956523", "osm_type": "node", "name": "Yangjiawan", "name:en": "Yangjiawan", "public_transport": "stop_position", "subway": "yes", "railway": "stop", "station": "", "wikidata": "", "access": "", "description": "", "name:zh": "杨家湾", "network": "", "operator": "", "int_name": "", "highway": "", "traffic_signals": "" }, "geometry": { "type": "Point", "coordinates": [ 114.376724, 30.5074033 ] } },
{ "type": "Feature", "properties": { "full_id": "n2398956489", "osm_id": "2398956489", "osm_type": "node", "name": "Baotong Temple", "name:en": "Baotong Temple", "public_transport": "stop_position", "subway": "yes", "railway": "stop", "station": "", "wikidata": "", "access": "", "description": "", "name:zh": "宝通寺", "network": "", "operator": "", "int_name": "", "highway": "", "traffic_signals": "" }, "geometry": { "type": "Point", "coordinates": [ 114.3354104, 30.5325941 ] } },
{ "type": "Feature", "properties": { "full_id": "n2398956751", "osm_id": "2398956751", "osm_type": "node", "name": "Huquan", "name:en": "Huquan", "public_transport": "stop_position", "subway": "yes", "railway": "stop", "station": "", "wikidata": "", "access": "", "description": "", "name:zh": "虎泉站", "network": "", "operator": "", "int_name": "", "highway": "", "traffic_signals": "" }, "geometry": { "type": "Point", "coordinates": [ 114.3647571, 30.5146769 ] } },
{ "type": "Feature", "properties": { "full_id": "n2398956607", "osm_id": "2398956607", "osm_type": "node", "name": "Jiedaokou", "name:en": "Jiedaokou", "public_transport": "stop_position", "subway": "yes", "railway": "stop", "station": "", "wikidata": "", "access": "", "description": "", "name:zh": "街道口", "network": "", "operator": "", "int_name": "", "highway": "", "traffic_signals": "" }, "geometry": { "type": "Point", "coordinates": [ 114.3473428, 30.5290508 ] } },
{ "type": "Feature", "properties": { "full_id": "n2398956724", "osm_id": "2398956724", "osm_type": "node", "name": "Hongshan Square", "name:en": "Hongshan Square", "public_transport": "stop_position", "subway": "yes", "railway": "stop", "station": "", "wikidata": "", "access": "", "description": "", "name:zh": "", "network": "", "operator": "", "int_name": "", "highway": "", "traffic_signals": "" }, "geometry": { "type": "Point", "coordinates": [ 114.3305135, 30.5477767 ] } },
{ "type": "Feature", "properties": { "full_id": "n5216576662", "osm_id": "5216576662", "osm_type": "node", "name": "Jiyuqiao", "name:en": "Jiyuqiao", "public_transport": "stop_position", "subway": "yes", "railway": "stop", "station": "", "wikidata": "", "access": "", "description": "", "name:zh": "", "network": "", "operator": "", "int_name": "", "highway": "", "traffic_signals": "" }, "geometry": { "type": "Point", "coordinates": [ 114.3032064, 30.5633071 ] } },
{ "type": "Feature", "properties": { "full_id": "n5216576663", "osm_id": "5216576663", "osm_type": "node", "name": "Jianghan Road", "name:en": "Jianghan Road", "public_transport": "stop_position", "subway": "yes", "railway": "stop", "station": "", "wikidata": "", "access": "", "description": "", "name:zh": "", "network": "", "operator": "", "int_name": "", "highway": "", "traffic_signals": "" }, "geometry": { "type": "Point", "coordinates": [ 114.2871696, 30.5821206 ] } },
{ "type": "Feature", "properties": { "full_id": "n5216576659", "osm_id": "5216576659", "osm_type": "node", "name": "Xiaoguishan", "name:en": "Xiaoguishan", "public_transport": "stop_position", "subway": "yes", "railway": "stop", "station": "", "wikidata": "", "access": "", "description": "", "name:zh": "", "network": "", "operator": "", "int_name": "", "highway": "", "traffic_signals": "" }, "geometry": { "type": "Point", "coordinates": [ 114.321342, 30.5534189 ] } },
{ "type": "Feature", "properties": { "full_id": "n6506172041", "osm_id": "6506172041", "osm_type": "node", "name": "Optics Valley Square", "name:en": "Optics Valley Square", "public_transport": "stop_position", "subway": "yes", "railway": "", "station": "", "wikidata": "", "access": "", "description": "", "name:zh": "光谷广场", "network": "", "operator": "", "int_name": "", "highway": "", "traffic_signals": "" }, "geometry": { "type": "Point", "coordinates": [ 114.3914774, 30.508086 ] } },
{ "type": "Feature", "properties": { "full_id": "n1880385746", "osm_id": "1880385746", "osm_type": "node", "name": "Changqinghuayuan", "name:en": "Changqinghuayuan", "public_transport": "stop_position", "subway": "yes", "railway": "", "station": "", "wikidata": "", "access": "", "description": "", "name:zh": "", "network": "", "operator": "", "int_name": "", "highway": "", "traffic_signals": "" }, "geometry": { "type": "Point", "coordinates": [ 114.2372025, 30.6429031 ] } },
{ "type": "Feature", "properties": { "full_id": "n1880385820", "osm_id": "1880385820", "osm_type": "node", "name": "Qingnian Road", "name:en": "Qingnian Road", "public_transport": "stop_position", "subway": "yes", "railway": "station", "station": "subway", "wikidata": "Q15932074", "access": "", "description": "", "name:zh": "", "network": "", "operator": "", "int_name": "", "highway": "", "traffic_signals": "" }, "geometry": { "type": "Point", "coordinates": [ 114.2595649, 30.587437 ] } },
{ "type": "Feature", "properties": { "full_id": "n1880385681", "osm_id": "1880385681", "osm_type": "node", "name": "Wangjiadun East", "name:en": "Wangjiadun East", "public_transport": "stop_position", "subway": "yes", "railway": "station", "station": "subway", "wikidata": "", "access": "", "description": "", "name:zh": "", "network": "", "operator": "", "int_name": "", "highway": "", "traffic_signals": "" }, "geometry": { "type": "Point", "coordinates": [ 114.2575773, 30.5967035 ] } },
{ "type": "Feature", "properties": { "full_id": "n1880385744", "osm_id": "1880385744", "osm_type": "node", "name": "Hankou Railway Station", "name:en": "Hankou Railway Station", "public_transport": "stop_position", "subway": "yes", "railway": "station", "station": "subway", "wikidata": "", "access": "", "description": "", "name:zh": "", "network": "", "operator": "", "int_name": "", "highway": "", "traffic_signals": "" }, "geometry": { "type": "Point", "coordinates": [ 114.248617, 30.6195121 ] } },
{ "type": "Feature", "properties": { "full_id": "n6512948263", "osm_id": "6512948263", "osm_type": "node", "name": "Changgang Road", "name:en": "Changgang Road", "public_transport": "", "subway": "", "railway": "station", "station": "subway", "wikidata": "Q15932467", "access": "", "description": "", "name:zh": "", "network": "", "operator": "", "int_name": "", "highway": "", "traffic_signals": "" }, "geometry": { "type": "Point", "coordinates": [ 114.2404108, 30.6299018 ] } },
{ "type": "Feature", "properties": { "full_id": "n1887922176", "osm_id": "1887922176", "osm_type": "node", "name": "Fanhu", "name:en": "Fanhu", "public_transport": "stop_position", "subway": "yes", "railway": "station", "station": "subway", "wikidata": "", "access": "", "description": "", "name:zh": "", "network": "", "operator": "", "int_name": "", "highway": "", "traffic_signals": "" }, "geometry": { "type": "Point", "coordinates": [ 114.2553496, 30.6087283 ] } },
{ "type": "Feature", "properties": { "full_id": "n1887922177", "osm_id": "1887922177", "osm_type": "node", "name": "Zhongshan Park", "name:en": "Zhongshan Park", "public_transport": "station", "subway": "yes", "railway": "station", "station": "subway", "wikidata": "Q10875224", "access": "", "description": "", "name:zh": "", "network": "", "operator": "", "int_name": "", "highway": "", "traffic_signals": "" }, "geometry": { "type": "Point", "coordinates": [ 114.2674512, 30.5848763 ] } }
]
}
