{
"type": "FeatureCollection",
"name": "wuhan-xingang-stops",
"crs": { "type": "name", "properties": { "name": "urn:ogc:def:crs:OGC:1.3:CRS84" } },
"features": [
{ "type": "Feature", "properties": { "full_id": null, "osm_id": null, "osm_type": null, "name": "Gongyesilu", "name:en": null, "public_transport": null, "subway": null, "railway": null, "station": null, "wikidata": null, "access": null, "description": null, "name:zh": null, "network": null, "operator": null, "int_name": null, "highway": null, "traffic_signals": null }, "geometry": { "type": "Point", "coordinates": [ 114.401204257293941, 30.605370471677432 ] } },
{ "type": "Feature", "properties": { "full_id": null, "osm_id": null, "osm_type": null, "name": "Wuhan Railway Station", "name:en": null, "public_transport": null, "subway": null, "railway": null, "station": null, "wikidata": null, "access": null, "description": null, "name:zh": null, "network": null, "operator": null, "int_name": null, "highway": null, "traffic_signals": null }, "geometry": { "type": "Point", "coordinates": [ 114.419431529901189, 30.609569424529415 ] } },
{ "type": "Feature", "properties": { "full_id": null, "osm_id": null, "osm_type": null, "name": "Qingshancheliangduan (name may change)", "name:en": null, "public_transport": null, "subway": null, "railway": null, "station": null, "wikidata": null, "access": null, "description": null, "name:zh": null, "network": null, "operator": null, "int_name": null, "highway": null, "traffic_signals": null }, "geometry": { "type": "Point", "coordinates": [ 114.433848865702757, 30.60241542080156 ] } },
{ "type": "Feature", "properties": { "full_id": null, "osm_id": null, "osm_type": null, "name": "Wudongcun", "name:en": null, "public_transport": null, "subway": null, "railway": null, "station": null, "wikidata": null, "access": null, "description": null, "name:zh": null, "network": null, "operator": null, "int_name": null, "highway": null, "traffic_signals": null }, "geometry": { "type": "Point", "coordinates": [ 114.467336048687343, 30.599271936483866 ] } },
{ "type": "Feature", "properties": { "full_id": null, "osm_id": null, "osm_type": null, "name": "Baiyushan", "name:en": null, "public_transport": null, "subway": null, "railway": null, "station": null, "wikidata": null, "access": null, "description": null, "name:zh": null, "network": null, "operator": null, "int_name": null, "highway": null, "traffic_signals": null }, "geometry": { "type": "Point", "coordinates": [ 114.48480668048532, 30.605811505200109 ] } },
{ "type": "Feature", "properties": { "full_id": null, "osm_id": null, "osm_type": null, "name": "Huagongxinqu", "name:en": null, "public_transport": null, "subway": null, "railway": null, "station": null, "wikidata": null, "access": null, "description": null, "name:zh": null, "network": null, "operator": null, "int_name": null, "highway": null, "traffic_signals": null }, "geometry": { "type": "Point", "coordinates": [ 114.540018975259557, 30.633374883717796 ] } },
{ "type": "Feature", "properties": { "full_id": null, "osm_id": null, "osm_type": null, "name": "Yangluojie", "name:en": null, "public_transport": null, "subway": null, "railway": null, "station": null, "wikidata": null, "access": null, "description": null, "name:zh": null, "network": null, "operator": null, "int_name": null, "highway": null, "traffic_signals": null }, "geometry": { "type": "Point", "coordinates": [ 114.563076191136048, 30.665323211840512 ] } },
{ "type": "Feature", "properties": { "full_id": null, "osm_id": null, "osm_type": null, "name": "Chaipohu", "name:en": null, "public_transport": null, "subway": null, "railway": null, "station": null, "wikidata": null, "access": null, "description": null, "name:zh": null, "network": null, "operator": null, "int_name": null, "highway": null, "traffic_signals": null }, "geometry": { "type": "Point", "coordinates": [ 114.578571526157845, 30.680379133236102 ] } },
{ "type": "Feature", "properties": { "full_id": null, "osm_id": null, "osm_type": null, "name": "Chaipodadao", "name:en": null, "public_transport": null, "subway": null, "railway": null, "station": null, "wikidata": null, "access": null, "description": null, "name:zh": null, "network": null, "operator": null, "int_name": null, "highway": null, "traffic_signals": null }, "geometry": { "type": "Point", "coordinates": [ 114.596126582784052, 30.692264806929401 ] } },
{ "type": "Feature", "properties": { "full_id": null, "osm_id": null, "osm_type": null, "name": "Shigang", "name:en": null, "public_transport": null, "subway": null, "railway": null, "station": null, "wikidata": null, "access": null, "description": null, "name:zh": null, "network": null, "operator": null, "int_name": null, "highway": null, "traffic_signals": null }, "geometry": { "type": "Point", "coordinates": [ 114.593983270941166, 30.70848253320732 ] } },
{ "type": "Feature", "properties": { "full_id": null, "osm_id": null, "osm_type": null, "name": "Taoqiaohu", "name:en": null, "public_transport": null, "subway": null, "railway": null, "station": null, "wikidata": null, "access": null, "description": null, "name:zh": null, "network": null, "operator": null, "int_name": null, "highway": null, "traffic_signals": null }, "geometry": { "type": "Point", "coordinates": [ 114.604243563638207, 30.722458162702917 ] } }
]
}
