{
"type": "FeatureCollection",
"name": "zhengzhou-line-6-phase-1-stops",
"crs": { "type": "name", "properties": { "name": "urn:ogc:def:crs:OGC:1.3:CRS84" } },
"features": [
{ "type": "Feature", "properties": { "full_id": null, "osm_id": null, "osm_type": null, "name": "Jiayuzhen", "name:en": null, "public_transport": null, "railway": null, "station": null, "subway": null, "wikidata": null, "name:zh": null, "train": null, "name:de": null, "construction:railway": null, "network": null, "access": null, "description": null }, "geometry": { "type": "Point", "coordinates": [ 113.440736671087649, 34.674680466455044 ] } },
{ "type": "Feature", "properties": { "full_id": null, "osm_id": null, "osm_type": null, "name": "Shidigongyuan", "name:en": null, "public_transport": null, "railway": null, "station": null, "subway": null, "wikidata": null, "name:zh": null, "train": null, "name:de": null, "construction:railway": null, "network": null, "access": null, "description": null }, "geometry": { "type": "Point", "coordinates": [ 113.477123956892953, 34.66959675088966 ] } },
{ "type": "Feature", "properties": { "full_id": null, "osm_id": null, "osm_type": null, "name": "Donglinhu", "name:en": null, "public_transport": null, "railway": null, "station": null, "subway": null, "wikidata": null, "name:zh": null, "train": null, "name:de": null, "construction:railway": null, "network": null, "access": null, "description": null }, "geometry": { "type": "Point", "coordinates": [ 113.490889505816071, 34.673033782495828 ] } },
{ "type": "Feature", "properties": { "full_id": null, "osm_id": null, "osm_type": null, "name": "Anninglu", "name:en": null, "public_transport": null, "railway": null, "station": null, "subway": null, "wikidata": null, "name:zh": null, "train": null, "name:de": null, "construction:railway": null, "network": null, "access": null, "description": null }, "geometry": { "type": "Point", "coordinates": [ 113.512174816084482, 34.685144498996692 ] } },
{ "type": "Feature", "properties": { "full_id": null, "osm_id": null, "osm_type": null, "name": "Guangminglu", "name:en": null, "public_transport": null, "railway": null, "station": null, "subway": null, "wikidata": null, "name:zh": null, "train": null, "name:de": null, "construction:railway": null, "network": null, "access": null, "description": null }, "geometry": { "type": "Point", "coordinates": [ 113.510362671986869, 34.70442092958379 ] } },
{ "type": "Feature", "properties": { "full_id": null, "osm_id": null, "osm_type": null, "name": "Gongyelu", "name:en": null, "public_transport": null, "railway": null, "station": null, "subway": null, "wikidata": null, "name:zh": null, "train": null, "name:de": null, "construction:railway": null, "network": null, "access": null, "description": null }, "geometry": { "type": "Point", "coordinates": [ 113.511637347185911, 34.715528684349955 ] } },
{ "type": "Feature", "properties": { "full_id": null, "osm_id": null, "osm_type": null, "name": "Jinmalu", "name:en": null, "public_transport": null, "railway": null, "station": null, "subway": null, "wikidata": null, "name:zh": null, "train": null, "name:de": null, "construction:railway": null, "network": null, "access": null, "description": null }, "geometry": { "type": "Point", "coordinates": [ 113.510654196296031, 34.735367851786926 ] } },
{ "type": "Feature", "properties": { "full_id": null, "osm_id": null, "osm_type": null, "name": "Quanzhoulu", "name:en": null, "public_transport": null, "railway": null, "station": null, "subway": null, "wikidata": null, "name:zh": null, "train": null, "name:de": null, "construction:railway": null, "network": null, "access": null, "description": null }, "geometry": { "type": "Point", "coordinates": [ 113.518237048829846, 34.740779243573456 ] } },
{ "type": "Feature", "properties": { "full_id": null, "osm_id": null, "osm_type": null, "name": "Olympics Center", "name:en": null, "public_transport": null, "railway": null, "station": null, "subway": null, "wikidata": null, "name:zh": null, "train": null, "name:de": null, "construction:railway": null, "network": null, "access": null, "description": null }, "geometry": { "type": "Point", "coordinates": [ 113.526342313935345, 34.740352912483132 ] } },
{ "type": "Feature", "properties": { "full_id": null, "osm_id": null, "osm_type": null, "name": "Changzhuang", "name:en": null, "public_transport": null, "railway": null, "station": null, "subway": null, "wikidata": null, "name:zh": null, "train": null, "name:de": null, "construction:railway": null, "network": null, "access": null, "description": null }, "geometry": { "type": "Point", "coordinates": [ 113.548616620946021, 34.739837911432424 ] } },
{ "type": "Feature", "properties": { "full_id": null, "osm_id": null, "osm_type": null, "name": "Kunlunlu", "name:en": null, "public_transport": null, "railway": null, "station": null, "subway": null, "wikidata": null, "name:zh": null, "train": null, "name:de": null, "construction:railway": null, "network": null, "access": null, "description": null }, "geometry": { "type": "Point", "coordinates": [ 113.588447762332862, 34.73012674397058 ] } },
{ "type": "Feature", "properties": { "full_id": null, "osm_id": null, "osm_type": null, "name": "Qinlinglu", "name:en": null, "public_transport": null, "railway": null, "station": null, "subway": null, "wikidata": null, "name:zh": null, "train": null, "name:de": null, "construction:railway": null, "network": null, "access": null, "description": null }, "geometry": { "type": "Point", "coordinates": [ 113.597369338240043, 34.730074866916425 ] } },
{ "type": "Feature", "properties": { "full_id": null, "osm_id": null, "osm_type": null, "name": "Tonghuai", "name:en": null, "public_transport": null, "railway": null, "station": null, "subway": null, "wikidata": null, "name:zh": null, "train": null, "name:de": null, "construction:railway": null, "network": null, "access": null, "description": null }, "geometry": { "type": "Point", "coordinates": [ 113.607464119529567, 34.730063582150017 ] } },
{ "type": "Feature", "properties": { "full_id": null, "osm_id": null, "osm_type": null, "name": "Chonghuaiyouyuan", "name:en": null, "public_transport": null, "railway": null, "station": null, "subway": null, "wikidata": null, "name:zh": null, "train": null, "name:de": null, "construction:railway": null, "network": null, "access": null, "description": null }, "geometry": { "type": "Point", "coordinates": [ 113.622076532884833, 34.730118458773951 ] } },
{ "type": "Feature", "properties": { "full_id": null, "osm_id": null, "osm_type": null, "name": "Guwancheng", "name:en": null, "public_transport": null, "railway": null, "station": null, "subway": null, "wikidata": null, "name:zh": null, "train": null, "name:de": null, "construction:railway": null, "network": null, "access": null, "description": null }, "geometry": { "type": "Point", "coordinates": [ 113.638015122513465, 34.730060655016935 ] } },
{ "type": "Feature", "properties": { "full_id": null, "osm_id": null, "osm_type": null, "name": "Jingguangzhonglu", "name:en": null, "public_transport": null, "railway": null, "station": null, "subway": null, "wikidata": null, "name:zh": null, "train": null, "name:de": null, "construction:railway": null, "network": null, "access": null, "description": null }, "geometry": { "type": "Point", "coordinates": [ 113.651062266454801, 34.730037865333394 ] } },
{ "type": "Feature", "properties": { "full_id": null, "osm_id": null, "osm_type": null, "name": "Miaopu", "name:en": null, "public_transport": null, "railway": null, "station": null, "subway": null, "wikidata": null, "name:zh": null, "train": null, "name:de": null, "construction:railway": null, "network": null, "access": null, "description": null }, "geometry": { "type": "Point", "coordinates": [ 113.660773708506525, 34.730999467903381 ] } },
{ "type": "Feature", "properties": { "full_id": null, "osm_id": null, "osm_type": null, "name": "Erligang", "name:en": null, "public_transport": null, "railway": null, "station": null, "subway": null, "wikidata": null, "name:zh": null, "train": null, "name:de": null, "construction:railway": null, "network": null, "access": null, "description": null }, "geometry": { "type": "Point", "coordinates": [ 113.676312159832406, 34.732075647831806 ] } },
{ "type": "Feature", "properties": { "full_id": null, "osm_id": null, "osm_type": null, "name": "Weizhuang", "name:en": null, "public_transport": null, "railway": null, "station": null, "subway": null, "wikidata": null, "name:zh": null, "train": null, "name:de": null, "construction:railway": null, "network": null, "access": null, "description": null }, "geometry": { "type": "Point", "coordinates": [ 113.690881859556654, 34.732171520477515 ] } },
{ "type": "Feature", "properties": { "full_id": null, "osm_id": null, "osm_type": null, "name": "Huozhanjie", "name:en": null, "public_transport": null, "railway": null, "station": null, "subway": null, "wikidata": null, "name:zh": null, "train": null, "name:de": null, "construction:railway": null, "network": null, "access": null, "description": null }, "geometry": { "type": "Point", "coordinates": [ 113.698072255851685, 34.738607595812603 ] } },
{ "type": "Feature", "properties": { "full_id": null, "osm_id": null, "osm_type": null, "name": "Bolanzhongxin", "name:en": null, "public_transport": null, "railway": null, "station": null, "subway": null, "wikidata": null, "name:zh": null, "train": null, "name:de": null, "construction:railway": null, "network": null, "access": null, "description": null }, "geometry": { "type": "Point", "coordinates": [ 113.697910051043166, 34.747906428948752 ] } },
{ "type": "Feature", "properties": { "full_id": null, "osm_id": null, "osm_type": null, "name": "Yanzhuang", "name:en": null, "public_transport": null, "railway": null, "station": null, "subway": null, "wikidata": null, "name:zh": null, "train": null, "name:de": null, "construction:railway": null, "network": null, "access": null, "description": null }, "geometry": { "type": "Point", "coordinates": [ 113.698557428162687, 34.764157099920091 ] } },
{ "type": "Feature", "properties": { "full_id": null, "osm_id": null, "osm_type": null, "name": "Yaozhai", "name:en": null, "public_transport": null, "railway": null, "station": null, "subway": null, "wikidata": null, "name:zh": null, "train": null, "name:de": null, "construction:railway": null, "network": null, "access": null, "description": null }, "geometry": { "type": "Point", "coordinates": [ 113.702422042634751, 34.775645048293484 ] } },
{ "type": "Feature", "properties": { "full_id": null, "osm_id": null, "osm_type": null, "name": "Station may be deleted", "name:en": null, "public_transport": null, "railway": null, "station": null, "subway": null, "wikidata": null, "name:zh": null, "train": null, "name:de": null, "construction:railway": null, "network": null, "access": null, "description": null }, "geometry": { "type": "Point", "coordinates": [ 113.57558789531133, 34.730736756198517 ] } }
]
}
