{
"type": "FeatureCollection",
"name": "suzhou-line-8-stops",
"crs": { "type": "name", "properties": { "name": "urn:ogc:def:crs:OGC:1.3:CRS84" } },
"features": [
{ "type": "Feature", "properties": { "full_id": "n7099206592", "osm_id": "7099206592", "osm_type": "node", "name": "虎殿路（在建）", "name:en": "", "operator": "", "public_transport": "station", "railway": "station", "station": "", "subway": "", "network": "", "train": "yes" }, "geometry": { "type": "Point", "coordinates": [ 120.5640801, 31.3523133 ] } },
{ "type": "Feature", "properties": { "full_id": "n7099206591", "osm_id": "7099206591", "osm_type": "node", "name": "虎丘湿地公园（在建）", "name:en": "", "operator": "", "public_transport": "station", "railway": "station", "station": "", "subway": "", "network": "", "train": "yes" }, "geometry": { "type": "Point", "coordinates": [ 120.5855245, 31.3637248 ] } },
{ "type": "Feature", "properties": { "full_id": "n6172569936", "osm_id": "6172569936", "osm_type": "node", "name": "中塘公园（在建）", "name:en": "", "operator": "", "public_transport": "station", "railway": "station", "station": "subway", "subway": "yes", "network": "", "train": "" }, "geometry": { "type": "Point", "coordinates": [ 120.7200004, 31.3103378 ] } },
{ "type": "Feature", "properties": { "full_id": "n4596174551", "osm_id": "4596174551", "osm_type": "node", "name": "苏州园区火车站", "name:en": "Suzhou Yuanqu Railway Station", "operator": "", "public_transport": "station", "railway": "station", "station": "subway", "subway": "yes", "network": "", "train": "yes" }, "geometry": { "type": "Point", "coordinates": [ 120.7061502, 31.3443983 ] } },
{ "type": "Feature", "properties": { "full_id": "n7099200261", "osm_id": "7099200261", "osm_type": "node", "name": "娄中路（在建）", "name:en": "", "operator": "", "public_transport": "station", "railway": "station", "station": "", "subway": "", "network": "", "train": "yes" }, "geometry": { "type": "Point", "coordinates": [ 120.6966736, 31.3472104 ] } },
{ "type": "Feature", "properties": { "full_id": "n4559363784", "osm_id": "4559363784", "osm_type": "node", "name": "松涛街", "name:en": "Songtao Jie", "operator": "", "public_transport": "station", "railway": "station", "station": "subway", "subway": "yes", "network": "", "train": "" }, "geometry": { "type": "Point", "coordinates": [ 120.7363537, 31.266251 ] } },
{ "type": "Feature", "properties": { "full_id": "n7099200260", "osm_id": "7099200260", "osm_type": "node", "name": "西沈浒路（在建）", "name:en": "", "operator": "", "public_transport": "station", "railway": "station", "station": "", "subway": "", "network": "", "train": "yes" }, "geometry": { "type": "Point", "coordinates": [ 120.7080633, 31.3325579 ] } },
{ "type": "Feature", "properties": { "full_id": "n7099200258", "osm_id": "7099200258", "osm_type": "node", "name": "右岸街（在建）", "name:en": "", "operator": "", "public_transport": "station", "railway": "station", "station": "", "subway": "", "network": "", "train": "yes" }, "geometry": { "type": "Point", "coordinates": [ 120.7098485, 31.3180115 ] } },
{ "type": "Feature", "properties": { "full_id": "n2099917683", "osm_id": "2099917683", "osm_type": "node", "name": "时代广场", "name:en": "Time Square", "operator": "SRT", "public_transport": "station", "railway": "station", "station": "subway", "subway": "yes", "network": "", "train": "" }, "geometry": { "type": "Point", "coordinates": [ 120.7086959, 31.3244445 ] } },
{ "type": "Feature", "properties": { "full_id": "n7099200256", "osm_id": "7099200256", "osm_type": "node", "name": "东延路（在建）", "name:en": "", "operator": "", "public_transport": "station", "railway": "station", "station": "", "subway": "", "network": "", "train": "yes" }, "geometry": { "type": "Point", "coordinates": [ 120.7298761, 31.2881544 ] } },
{ "type": "Feature", "properties": { "full_id": "n7099200255", "osm_id": "7099200255", "osm_type": "node", "name": "仁爱路（在建）", "name:en": "", "operator": "", "public_transport": "station", "railway": "station", "station": "", "subway": "", "network": "", "train": "yes" }, "geometry": { "type": "Point", "coordinates": [ 120.7311948, 31.2775343 ] } },
{ "type": "Feature", "properties": { "full_id": "n7099200253", "osm_id": "7099200253", "osm_type": "node", "name": "裕新路（在建）", "name:en": "", "operator": "", "public_transport": "station", "railway": "station", "station": "", "subway": "", "network": "", "train": "yes" }, "geometry": { "type": "Point", "coordinates": [ 120.7394371, 31.2579009 ] } },
{ "type": "Feature", "properties": { "full_id": "n7099200252", "osm_id": "7099200252", "osm_type": "node", "name": "车坊（在建）", "name:en": "", "operator": "", "public_transport": "station", "railway": "station", "station": "", "subway": "", "network": "", "train": "" }, "geometry": { "type": "Point", "coordinates": [ 120.7425866, 31.2499979 ] } },
{ "type": "Feature", "properties": { "full_id": "n7099206590", "osm_id": "7099206590", "osm_type": "node", "name": "人民路（在建）", "name:en": "", "operator": "", "public_transport": "station", "railway": "station", "station": "", "subway": "", "network": "", "train": "yes" }, "geometry": { "type": "Point", "coordinates": [ 120.6037595, 31.364305 ] } },
{ "type": "Feature", "properties": { "full_id": "n7099206589", "osm_id": "7099206589", "osm_type": "node", "name": "陆慕老街（在建）", "name:en": "", "operator": "", "public_transport": "station", "railway": "station", "station": "", "subway": "", "network": "", "train": "yes" }, "geometry": { "type": "Point", "coordinates": [ 120.6168623, 31.3650602 ] } },
{ "type": "Feature", "properties": { "full_id": "n7099206588", "osm_id": "7099206588", "osm_type": "node", "name": "阳澄湖中路（在建）", "name:en": "", "operator": "", "public_transport": "station", "railway": "station", "station": "", "subway": "", "network": "", "train": "yes" }, "geometry": { "type": "Point", "coordinates": [ 120.6235431, 31.3657206 ] } },
{ "type": "Feature", "properties": { "full_id": "n7099206587", "osm_id": "7099206587", "osm_type": "node", "name": "相城大道（在建）", "name:en": "", "operator": "", "public_transport": "station", "railway": "station", "station": "", "subway": "", "network": "", "train": "yes" }, "geometry": { "type": "Point", "coordinates": [ 120.6341863, 31.3671316 ] } },
{ "type": "Feature", "properties": { "full_id": "n7099206586", "osm_id": "7099206586", "osm_type": "node", "name": "相城区行政中心南（在建）", "name:en": "", "operator": "", "public_transport": "station", "railway": "station", "station": "", "subway": "", "network": "", "train": "yes" }, "geometry": { "type": "Point", "coordinates": [ 120.6434879, 31.3694427 ] } },
{ "type": "Feature", "properties": { "full_id": "n4625474491", "osm_id": "4625474491", "osm_type": "node", "name": "斜塘（在建）", "name:en": "", "operator": "", "public_transport": "station", "railway": "station", "station": "", "subway": "", "network": "", "train": "" }, "geometry": { "type": "Point", "coordinates": [ 120.7299066, 31.3015149 ] } },
{ "type": "Feature", "properties": { "full_id": "n7099206585", "osm_id": "7099206585", "osm_type": "node", "name": "徐阳路（在建）", "name:en": "", "operator": "", "public_transport": "station", "railway": "station", "station": "", "subway": "", "network": "", "train": "yes" }, "geometry": { "type": "Point", "coordinates": [ 120.6554117, 31.3796482 ] } },
{ "type": "Feature", "properties": { "full_id": "n7099200278", "osm_id": "7099200278", "osm_type": "node", "name": "济学路（在建）", "name:en": "", "operator": "", "public_transport": "station", "railway": "station", "station": "", "subway": "", "network": "", "train": "yes" }, "geometry": { "type": "Point", "coordinates": [ 120.6672907, 31.3812803 ] } },
{ "type": "Feature", "properties": { "full_id": "n7099200262", "osm_id": "7099200262", "osm_type": "node", "name": "和顺路（在建）", "name:en": "", "operator": "", "public_transport": "station", "railway": "station", "station": "", "subway": "", "network": "", "train": "yes" }, "geometry": { "type": "Point", "coordinates": [ 120.669119, 31.3509757 ] } },
{ "type": "Feature", "properties": { "full_id": "n7099206593", "osm_id": "7099206593", "osm_type": "node", "name": "时家桥（在建）", "name:en": "", "operator": "", "public_transport": "station", "railway": "station", "station": "", "subway": "", "network": "", "train": "yes" }, "geometry": { "type": "Point", "coordinates": [ 120.5503135, 31.3376788 ] } },
{ "type": "Feature", "properties": { "full_id": null, "osm_id": null, "osm_type": null, "name": "Changjianglu", "name:en": null, "operator": null, "public_transport": null, "railway": null, "station": null, "subway": null, "network": null, "train": null }, "geometry": { "type": "Point", "coordinates": [ 120.541015577640351, 31.328929111543502 ] } },
{ "type": "Feature", "properties": { "full_id": null, "osm_id": null, "osm_type": null, "name": "Xijinqiao", "name:en": null, "operator": null, "public_transport": null, "railway": null, "station": null, "subway": null, "network": null, "train": null }, "geometry": { "type": "Point", "coordinates": [ 120.54201508223386, 31.315406975791344 ] } },
{ "type": "Feature", "properties": { "full_id": null, "osm_id": null, "osm_type": null, "name": "Tangzhuang", "name:en": null, "operator": null, "public_transport": null, "railway": null, "station": null, "subway": null, "network": null, "train": null }, "geometry": { "type": "Point", "coordinates": [ 120.680282639427219, 31.342594902045583 ] } },
{ "type": "Feature", "properties": { "full_id": null, "osm_id": null, "osm_type": null, "name": "Sunwujinianyuan", "name:en": null, "operator": null, "public_transport": null, "railway": null, "station": null, "subway": null, "network": null, "train": null }, "geometry": { "type": "Point", "coordinates": [ 120.598608841715176, 31.364123613128854 ] } },
{ "type": "Feature", "properties": { "full_id": null, "osm_id": null, "osm_type": null, "name": "Jinyejie", "name:en": null, "operator": null, "public_transport": null, "railway": null, "station": null, "subway": null, "network": null, "train": null }, "geometry": { "type": "Point", "coordinates": [ 120.556312275388819, 31.342373785844131 ] } }
]
}
