{
"type": "FeatureCollection",
"name": "wuhan-line-5-stops",
"crs": { "type": "name", "properties": { "name": "urn:ogc:def:crs:OGC:1.3:CRS84" } },
"features": [
{ "type": "Feature", "properties": { "full_id": null, "osm_id": null, "osm_type": null, "name": "Nansanhuan", "name:en": null, "public_transport": null, "subway": null, "railway": null, "station": null, "wikidata": null, "access": null, "description": null, "name:zh": null, "network": null, "operator": null, "int_name": null, "highway": null, "traffic_signals": null }, "geometry": { "type": "Point", "coordinates": [ 114.263085245176143, 30.455764666789182 ] } },
{ "type": "Feature", "properties": { "full_id": null, "osm_id": null, "osm_type": null, "name": "Baishawulu", "name:en": null, "public_transport": null, "subway": null, "railway": null, "station": null, "wikidata": null, "access": null, "description": null, "name:zh": null, "network": null, "operator": null, "int_name": null, "highway": null, "traffic_signals": null }, "geometry": { "type": "Point", "coordinates": [ 114.288024906804552, 30.470742360781188 ] } },
{ "type": "Feature", "properties": { "full_id": null, "osm_id": null, "osm_type": null, "name": "Qingling", "name:en": null, "public_transport": null, "subway": null, "railway": null, "station": null, "wikidata": null, "access": null, "description": null, "name:zh": null, "network": null, "operator": null, "int_name": null, "highway": null, "traffic_signals": null }, "geometry": { "type": "Point", "coordinates": [ 114.287815114454503, 30.480520057523524 ] } },
{ "type": "Feature", "properties": { "full_id": null, "osm_id": null, "osm_type": null, "name": "Jiangguolu", "name:en": null, "public_transport": null, "subway": null, "railway": null, "station": null, "wikidata": null, "access": null, "description": null, "name:zh": null, "network": null, "operator": null, "int_name": null, "highway": null, "traffic_signals": null }, "geometry": { "type": "Point", "coordinates": [ 114.28819476757586, 30.498238646677283 ] } },
{ "type": "Feature", "properties": { "full_id": null, "osm_id": null, "osm_type": null, "name": "Jiangminlu", "name:en": null, "public_transport": null, "subway": null, "railway": null, "station": null, "wikidata": null, "access": null, "description": null, "name:zh": null, "network": null, "operator": null, "int_name": null, "highway": null, "traffic_signals": null }, "geometry": { "type": "Point", "coordinates": [ 114.293413351635976, 30.511930546715078 ] } },
{ "type": "Feature", "properties": { "full_id": null, "osm_id": null, "osm_type": null, "name": "Wujintigonglu", "name:en": null, "public_transport": null, "subway": null, "railway": null, "station": null, "wikidata": null, "access": null, "description": null, "name:zh": null, "network": null, "operator": null, "int_name": null, "highway": null, "traffic_signals": null }, "geometry": { "type": "Point", "coordinates": [ 114.295286597742361, 30.522374347759172 ] } },
{ "type": "Feature", "properties": { "full_id": null, "osm_id": null, "osm_type": null, "name": "Fuxinglu", "name:en": null, "public_transport": null, "subway": null, "railway": null, "station": null, "wikidata": null, "access": null, "description": null, "name:zh": null, "network": null, "operator": null, "int_name": null, "highway": null, "traffic_signals": null }, "geometry": { "type": "Point", "coordinates": [ 114.296110253524162, 30.536665468563342 ] } },
{ "type": "Feature", "properties": { "full_id": null, "osm_id": null, "osm_type": null, "name": "Pengliuyanglu", "name:en": null, "public_transport": null, "subway": null, "railway": null, "station": null, "wikidata": null, "access": null, "description": null, "name:zh": null, "network": null, "operator": null, "int_name": null, "highway": null, "traffic_signals": null }, "geometry": { "type": "Point", "coordinates": [ 114.296015881905092, 30.542270406324064 ] } },
{ "type": "Feature", "properties": { "full_id": null, "osm_id": null, "osm_type": null, "name": "Simenkou", "name:en": null, "public_transport": null, "subway": null, "railway": null, "station": null, "wikidata": null, "access": null, "description": null, "name:zh": null, "network": null, "operator": null, "int_name": null, "highway": null, "traffic_signals": null }, "geometry": { "type": "Point", "coordinates": [ 114.29631696928098, 30.548194859022413 ] } },
{ "type": "Feature", "properties": { "full_id": null, "osm_id": null, "osm_type": null, "name": "Tanhualin", "name:en": null, "public_transport": null, "subway": null, "railway": null, "station": null, "wikidata": null, "access": null, "description": null, "name:zh": null, "network": null, "operator": null, "int_name": null, "highway": null, "traffic_signals": null }, "geometry": { "type": "Point", "coordinates": [ 114.300385950535556, 30.557796725653215 ] } },
{ "type": "Feature", "properties": { "full_id": null, "osm_id": null, "osm_type": null, "name": "Jiyuqiao", "name:en": null, "public_transport": null, "subway": null, "railway": null, "station": null, "wikidata": null, "access": null, "description": null, "name:zh": null, "network": null, "operator": null, "int_name": null, "highway": null, "traffic_signals": null }, "geometry": { "type": "Point", "coordinates": [ 114.303270810308277, 30.563631382976716 ] } },
{ "type": "Feature", "properties": { "full_id": null, "osm_id": null, "osm_type": null, "name": "Xinshenglu", "name:en": null, "public_transport": null, "subway": null, "railway": null, "station": null, "wikidata": null, "access": null, "description": null, "name:zh": null, "network": null, "operator": null, "int_name": null, "highway": null, "traffic_signals": null }, "geometry": { "type": "Point", "coordinates": [ 114.30881157909333, 30.571429550543126 ] } },
{ "type": "Feature", "properties": { "full_id": null, "osm_id": null, "osm_type": null, "name": "Sanjiaolu", "name:en": null, "public_transport": null, "subway": null, "railway": null, "station": null, "wikidata": null, "access": null, "description": null, "name:zh": null, "network": null, "operator": null, "int_name": null, "highway": null, "traffic_signals": null }, "geometry": { "type": "Point", "coordinates": [ 114.319393193563627, 30.582970263084768 ] } },
{ "type": "Feature", "properties": { "full_id": null, "osm_id": null, "osm_type": null, "name": "Xujiapeng", "name:en": null, "public_transport": null, "subway": null, "railway": null, "station": null, "wikidata": null, "access": null, "description": null, "name:zh": null, "network": null, "operator": null, "int_name": null, "highway": null, "traffic_signals": null }, "geometry": { "type": "Point", "coordinates": [ 114.326324499583237, 30.591091038494099 ] } },
{ "type": "Feature", "properties": { "full_id": null, "osm_id": null, "osm_type": null, "name": "Yangyuan", "name:en": null, "public_transport": null, "subway": null, "railway": null, "station": null, "wikidata": null, "access": null, "description": null, "name:zh": null, "network": null, "operator": null, "int_name": null, "highway": null, "traffic_signals": null }, "geometry": { "type": "Point", "coordinates": [ 114.337819015603372, 30.6022422121553 ] } },
{ "type": "Feature", "properties": { "full_id": null, "osm_id": null, "osm_type": null, "name": "Kepugongyuan", "name:en": null, "public_transport": null, "subway": null, "railway": null, "station": null, "wikidata": null, "access": null, "description": null, "name:zh": null, "network": null, "operator": null, "int_name": null, "highway": null, "traffic_signals": null }, "geometry": { "type": "Point", "coordinates": [ 114.35964418952473, 30.619930152147674 ] } },
{ "type": "Feature", "properties": { "full_id": null, "osm_id": null, "osm_type": null, "name": "Yujiatou", "name:en": null, "public_transport": null, "subway": null, "railway": null, "station": null, "wikidata": null, "access": null, "description": null, "name:zh": null, "network": null, "operator": null, "int_name": null, "highway": null, "traffic_signals": null }, "geometry": { "type": "Point", "coordinates": [ 114.347837375906948, 30.611208651652902 ] } },
{ "type": "Feature", "properties": { "full_id": null, "osm_id": null, "osm_type": null, "name": "Hepinggongyuan", "name:en": null, "public_transport": null, "subway": null, "railway": null, "station": null, "wikidata": null, "access": null, "description": null, "name:zh": null, "network": null, "operator": null, "int_name": null, "highway": null, "traffic_signals": null }, "geometry": { "type": "Point", "coordinates": [ 114.381694052313946, 30.634258253361146 ] } },
{ "type": "Feature", "properties": { "full_id": null, "osm_id": null, "osm_type": null, "name": "Honggangcheng", "name:en": null, "public_transport": null, "subway": null, "railway": null, "station": null, "wikidata": null, "access": null, "description": null, "name:zh": null, "network": null, "operator": null, "int_name": null, "highway": null, "traffic_signals": null }, "geometry": { "type": "Point", "coordinates": [ 114.396249573579809, 30.6415228550071 ] } },
{ "type": "Feature", "properties": { "full_id": null, "osm_id": null, "osm_type": null, "name": "Jiansheshiyilu", "name:en": null, "public_transport": null, "subway": null, "railway": null, "station": null, "wikidata": null, "access": null, "description": null, "name:zh": null, "network": null, "operator": null, "int_name": null, "highway": null, "traffic_signals": null }, "geometry": { "type": "Point", "coordinates": [ 114.413408459740253, 30.64491497023133 ] } },
{ "type": "Feature", "properties": { "full_id": null, "osm_id": null, "osm_type": null, "name": "Dushigongyeyuan", "name:en": null, "public_transport": null, "subway": null, "railway": null, "station": null, "wikidata": null, "access": null, "description": null, "name:zh": null, "network": null, "operator": null, "int_name": null, "highway": null, "traffic_signals": null }, "geometry": { "type": "Point", "coordinates": [ 114.418944964354367, 30.633787364973539 ] } },
{ "type": "Feature", "properties": { "full_id": null, "osm_id": null, "osm_type": null, "name": "Wugang", "name:en": null, "public_transport": null, "subway": null, "railway": null, "station": null, "wikidata": null, "access": null, "description": null, "name:zh": null, "network": null, "operator": null, "int_name": null, "highway": null, "traffic_signals": null }, "geometry": { "type": "Point", "coordinates": [ 114.431540232486583, 30.621535816948484 ] } },
{ "type": "Feature", "properties": { "full_id": null, "osm_id": null, "osm_type": null, "name": "Wangqinggonglu", "name:en": null, "public_transport": null, "subway": null, "railway": null, "station": null, "wikidata": null, "access": null, "description": null, "name:zh": null, "network": null, "operator": null, "int_name": null, "highway": null, "traffic_signals": null }, "geometry": { "type": "Point", "coordinates": [ 114.426226897712766, 30.613609579092184 ] } },
{ "type": "Feature", "properties": { "full_id": null, "osm_id": null, "osm_type": null, "name": "Wuhan Railway Station", "name:en": null, "public_transport": null, "subway": null, "railway": null, "station": null, "wikidata": null, "access": null, "description": null, "name:zh": null, "network": null, "operator": null, "int_name": null, "highway": null, "traffic_signals": null }, "geometry": { "type": "Point", "coordinates": [ 114.421283152787225, 30.609191973085654 ] } },
{ "type": "Feature", "properties": { "full_id": null, "osm_id": null, "osm_type": null, "name": "Jianshe'erlu", "name:en": null, "public_transport": null, "subway": null, "railway": null, "station": null, "wikidata": null, "access": null, "description": null, "name:zh": null, "network": null, "operator": null, "int_name": null, "highway": null, "traffic_signals": null }, "geometry": { "type": "Point", "coordinates": [ 114.370580822703644, 30.627062819387771 ] } }
]
}
