{
"type": "FeatureCollection",
"name": "wuhan-line-11-east-stops",
"crs": { "type": "name", "properties": { "name": "urn:ogc:def:crs:OGC:1.3:CRS84" } },
"features": [
{ "type": "Feature", "properties": { "full_id": "n4848963423", "osm_id": "4848963423", "osm_type": "node", "name": "Zuoling", "name:en": "Zuoling", "public_transport": "station", "subway": "yes", "railway": "station", "station": "subway", "wikidata": "", "access": "", "description": "", "name:zh": "", "network": "", "operator": "", "int_name": "", "highway": "", "traffic_signals": "" }, "geometry": { "type": "Point", "coordinates": [ 114.6169375, 30.4906282 ] } },
{ "type": "Feature", "properties": { "full_id": "n5941560012", "osm_id": "5941560012", "osm_type": "node", "name": "Changlingshan", "name:en": "Changlingshan", "public_transport": "station", "subway": "yes", "railway": "station", "station": "subway", "wikidata": "", "access": "", "description": "", "name:zh": "", "network": "", "operator": "", "int_name": "", "highway": "", "traffic_signals": "" }, "geometry": { "type": "Point", "coordinates": [ 114.5575346, 30.4899279 ] } },
{ "type": "Feature", "properties": { "full_id": "n4848963315", "osm_id": "4848963315", "osm_type": "node", "name": "Weilai 3rd Road", "name:en": "Weilai 3rd Road", "public_transport": "station", "subway": "yes", "railway": "station", "station": "subway", "wikidata": "", "access": "", "description": "", "name:zh": "", "network": "", "operator": "", "int_name": "", "highway": "", "traffic_signals": "" }, "geometry": { "type": "Point", "coordinates": [ 114.6000503, 30.4886636 ] } },
{ "type": "Feature", "properties": { "full_id": "n5941560011", "osm_id": "5941560011", "osm_type": "node", "name": "Baoxie", "name:en": "Baoxie", "public_transport": "station", "subway": "yes", "railway": "station", "station": "subway", "wikidata": "", "access": "", "description": "", "name:zh": "", "network": "", "operator": "", "int_name": "", "highway": "", "traffic_signals": "" }, "geometry": { "type": "Point", "coordinates": [ 114.5179023, 30.4911559 ] } },
{ "type": "Feature", "properties": { "full_id": "n4848963302", "osm_id": "4848963302", "osm_type": "node", "name": "Weilai 1st Road", "name:en": "Weilai 1st Road", "public_transport": "station", "subway": "", "railway": "station", "station": "subway", "wikidata": "", "access": "", "description": "", "name:zh": "", "network": "", "operator": "", "int_name": "", "highway": "", "traffic_signals": "" }, "geometry": { "type": "Point", "coordinates": [ 114.5801161, 30.4868122 ] } },
{ "type": "Feature", "properties": { "full_id": "n5941560010", "osm_id": "5941560010", "osm_type": "node", "name": "Guanggu 5th Road", "name:en": "Guanggu 5th Road", "public_transport": "station", "subway": "", "railway": "station", "station": "subway", "wikidata": "", "access": "", "description": "", "name:zh": "", "network": "", "operator": "", "int_name": "", "highway": "", "traffic_signals": "" }, "geometry": { "type": "Point", "coordinates": [ 114.497523, 30.48768 ] } },
{ "type": "Feature", "properties": { "full_id": "n4848963272", "osm_id": "4848963272", "osm_type": "node", "name": "Guanggu 7th Road", "name:en": "Guanggu 7th Road", "public_transport": "station", "subway": "", "railway": "station", "station": "subway", "wikidata": "", "access": "", "description": "", "name:zh": "", "network": "", "operator": "", "int_name": "", "highway": "", "traffic_signals": "" }, "geometry": { "type": "Point", "coordinates": [ 114.5286096, 30.4908455 ] } },
{ "type": "Feature", "properties": { "full_id": "n4848956872", "osm_id": "4848956872", "osm_type": "node", "name": "Hukou", "name:en": "Hukou", "public_transport": "station", "subway": "yes", "railway": "station", "station": "subway", "wikidata": "", "access": "", "description": "", "name:zh": "", "network": "", "operator": "", "int_name": "", "highway": "", "traffic_signals": "" }, "geometry": { "type": "Point", "coordinates": [ 114.4409906, 30.4908654 ] } },
{ "type": "Feature", "properties": { "full_id": "n4848956869", "osm_id": "4848956869", "osm_type": "node", "name": "Optics Valley Railway Station", "name:en": "Optics Valley Railway Station", "public_transport": "station", "subway": "yes", "railway": "station", "station": "subway", "wikidata": "", "access": "", "description": "", "name:zh": "", "network": "", "operator": "", "int_name": "", "highway": "", "traffic_signals": "" }, "geometry": { "type": "Point", "coordinates": [ 114.4282019, 30.4889412 ] } },
{ "type": "Feature", "properties": { "full_id": "n4848963257", "osm_id": "4848963257", "osm_type": "node", "name": "Guanggu 6th Road", "name:en": "Guanggu 6th Road", "public_transport": "station", "subway": "yes", "railway": "station", "station": "subway", "wikidata": "", "access": "", "description": "", "name:zh": "", "network": "", "operator": "", "int_name": "", "highway": "", "traffic_signals": "" }, "geometry": { "type": "Point", "coordinates": [ 114.5068241, 30.4876565 ] } },
{ "type": "Feature", "properties": { "full_id": "n4848963232", "osm_id": "4848963232", "osm_type": "node", "name": "Guanggu 4th Road", "name:en": "Guanggu 4th Road", "public_transport": "station", "subway": "", "railway": "station", "station": "subway", "wikidata": "", "access": "", "description": "", "name:zh": "", "network": "", "operator": "", "int_name": "", "highway": "", "traffic_signals": "" }, "geometry": { "type": "Point", "coordinates": [ 114.4863756, 30.491696 ] } },
{ "type": "Feature", "properties": { "full_id": "n4848956913", "osm_id": "4848956913", "osm_type": "node", "name": "Guanggushengwuyuan", "name:en": "Guanggushengwuyuan", "public_transport": "station", "subway": "", "railway": "station", "station": "subway", "wikidata": "", "access": "", "description": "", "name:zh": "", "network": "", "operator": "", "int_name": "", "highway": "", "traffic_signals": "" }, "geometry": { "type": "Point", "coordinates": [ 114.4760149, 30.4899952 ] } },
{ "type": "Feature", "properties": { "full_id": "n4848956905", "osm_id": "4848956905", "osm_type": "node", "name": "Tongji Hospital", "name:en": "Tongji Hospital", "public_transport": "station", "subway": "", "railway": "station", "station": "subway", "wikidata": "", "access": "", "description": "", "name:zh": "", "network": "", "operator": "", "int_name": "", "highway": "", "traffic_signals": "" }, "geometry": { "type": "Point", "coordinates": [ 114.460559, 30.487744 ] } },
{ "type": "Feature", "properties": { "full_id": null, "osm_id": null, "osm_type": null, "name": "Guanshandadao", "name:en": null, "public_transport": null, "subway": null, "railway": null, "station": null, "wikidata": null, "access": null, "description": null, "name:zh": null, "network": null, "operator": null, "int_name": null, "highway": null, "traffic_signals": null }, "geometry": { "type": "Point", "coordinates": [ 114.406745712359651, 30.499475315730948 ] } },
{ "type": "Feature", "properties": { "full_id": null, "osm_id": null, "osm_type": null, "name": "Guangguguangchang", "name:en": null, "public_transport": null, "subway": null, "railway": null, "station": null, "wikidata": null, "access": null, "description": null, "name:zh": null, "network": null, "operator": null, "int_name": null, "highway": null, "traffic_signals": null }, "geometry": { "type": "Point", "coordinates": [ 114.394411428637127, 30.507840439887701 ] } },
{ "type": "Feature", "properties": { "full_id": null, "osm_id": null, "osm_type": null, "name": "Tiyuxueyuan", "name:en": null, "public_transport": null, "subway": null, "railway": null, "station": null, "wikidata": null, "access": null, "description": null, "name:zh": null, "network": null, "operator": null, "int_name": null, "highway": null, "traffic_signals": null }, "geometry": { "type": "Point", "coordinates": [ 114.371909566860126, 30.519625864339808 ] } },
{ "type": "Feature", "properties": { "full_id": null, "osm_id": null, "osm_type": null, "name": "Huquan", "name:en": null, "public_transport": null, "subway": null, "railway": null, "station": null, "wikidata": null, "access": null, "description": null, "name:zh": null, "network": null, "operator": null, "int_name": null, "highway": null, "traffic_signals": null }, "geometry": { "type": "Point", "coordinates": [ 114.363902934414355, 30.515792090186327 ] } },
{ "type": "Feature", "properties": { "full_id": null, "osm_id": null, "osm_type": null, "name": "Mahushan", "name:en": null, "public_transport": null, "subway": null, "railway": null, "station": null, "wikidata": null, "access": null, "description": null, "name:zh": null, "network": null, "operator": null, "int_name": null, "highway": null, "traffic_signals": null }, "geometry": { "type": "Point", "coordinates": [ 114.344792874740932, 30.51649732734446 ] } },
{ "type": "Feature", "properties": { "full_id": null, "osm_id": null, "osm_type": null, "name": "Dingziqiaolu", "name:en": null, "public_transport": null, "subway": null, "railway": null, "station": null, "wikidata": null, "access": null, "description": null, "name:zh": null, "network": null, "operator": null, "int_name": null, "highway": null, "traffic_signals": null }, "geometry": { "type": "Point", "coordinates": [ 114.32418801457321, 30.524328806836142 ] } },
{ "type": "Feature", "properties": { "full_id": null, "osm_id": null, "osm_type": null, "name": "Wuchang Railway Station", "name:en": null, "public_transport": null, "subway": null, "railway": null, "station": null, "wikidata": null, "access": null, "description": null, "name:zh": null, "network": null, "operator": null, "int_name": null, "highway": null, "traffic_signals": null }, "geometry": { "type": "Point", "coordinates": [ 114.315033691698673, 30.532839854246486 ] } }
]
}
