{
"type": "FeatureCollection",
"name": "xiamen-line-3-phase-2-stops",
"crs": { "type": "name", "properties": { "name": "urn:ogc:def:crs:OGC:1.3:CRS84" } },
"features": [
{ "type": "Feature", "properties": { "full_id": null, "osm_id": null, "osm_type": null, "name": "Huizhanzhongxin", "name:en": null, "public_transport": null, "subway": null, "railway": null, "station": null, "wikidata": null, "name:zh": null }, "geometry": { "type": "Point", "coordinates": [ 118.200874290434143, 24.55778240400857 ] } },
{ "type": "Feature", "properties": { "full_id": null, "osm_id": null, "osm_type": null, "name": "Dongjie", "name:en": null, "public_transport": null, "subway": null, "railway": null, "station": null, "wikidata": null, "name:zh": null }, "geometry": { "type": "Point", "coordinates": [ 118.2123100012614, 24.56600616227038 ] } },
{ "type": "Feature", "properties": { "full_id": null, "osm_id": null, "osm_type": null, "name": "Hongkeng", "name:en": null, "public_transport": null, "subway": null, "railway": null, "station": null, "wikidata": null, "name:zh": null }, "geometry": { "type": "Point", "coordinates": [ 118.221725765292447, 24.574188514898651 ] } },
{ "type": "Feature", "properties": { "full_id": null, "osm_id": null, "osm_type": null, "name": "Linqian", "name:en": null, "public_transport": null, "subway": null, "railway": null, "station": null, "wikidata": null, "name:zh": null }, "geometry": { "type": "Point", "coordinates": [ 118.226726836720744, 24.578436861386123 ] } },
{ "type": "Feature", "properties": { "full_id": null, "osm_id": null, "osm_type": null, "name": "Yangtang", "name:en": null, "public_transport": null, "subway": null, "railway": null, "station": null, "wikidata": null, "name:zh": null }, "geometry": { "type": "Point", "coordinates": [ 118.238192891528882, 24.581396962076756 ] } },
{ "type": "Feature", "properties": { "full_id": null, "osm_id": null, "osm_type": null, "name": "Xiang'an Xingzhengzhongxin", "name:en": null, "public_transport": null, "subway": null, "railway": null, "station": null, "wikidata": null, "name:zh": null }, "geometry": { "type": "Point", "coordinates": [ 118.250378250367532, 24.581586935924637 ] } },
{ "type": "Feature", "properties": { "full_id": null, "osm_id": null, "osm_type": null, "name": "Pubian", "name:en": null, "public_transport": null, "subway": null, "railway": null, "station": null, "wikidata": null, "name:zh": null }, "geometry": { "type": "Point", "coordinates": [ 118.258119933723393, 24.583166769101251 ] } },
{ "type": "Feature", "properties": { "full_id": null, "osm_id": null, "osm_type": null, "name": "Houcun", "name:en": null, "public_transport": null, "subway": null, "railway": null, "station": null, "wikidata": null, "name:zh": null }, "geometry": { "type": "Point", "coordinates": [ 118.266628419690349, 24.583164509383618 ] } },
{ "type": "Feature", "properties": { "full_id": null, "osm_id": null, "osm_type": null, "name": "Caicuo", "name:en": null, "public_transport": null, "subway": null, "railway": null, "station": null, "wikidata": null, "name:zh": null }, "geometry": { "type": "Point", "coordinates": [ 118.275803734720711, 24.574342163014354 ] } },
{ "type": "Feature", "properties": { "full_id": null, "osm_id": null, "osm_type": null, "name": "Dadengbei", "name:en": null, "public_transport": null, "subway": null, "railway": null, "station": null, "wikidata": null, "name:zh": null }, "geometry": { "type": "Point", "coordinates": [ 118.296514067440285, 24.560329390551335 ] } },
{ "type": "Feature", "properties": { "full_id": null, "osm_id": null, "osm_type": null, "name": "Shuanghu", "name:en": null, "public_transport": null, "subway": null, "railway": null, "station": null, "wikidata": null, "name:zh": null }, "geometry": { "type": "Point", "coordinates": [ 118.313338392937183, 24.54845785845885 ] } },
{ "type": "Feature", "properties": { "full_id": null, "osm_id": null, "osm_type": null, "name": "Konggangjingjiqu", "name:en": null, "public_transport": null, "subway": null, "railway": null, "station": null, "wikidata": null, "name:zh": null }, "geometry": { "type": "Point", "coordinates": [ 118.336718060469494, 24.544330840023523 ] } },
{ "type": "Feature", "properties": { "full_id": null, "osm_id": null, "osm_type": null, "name": "Jichangxi (new)", "name:en": null, "public_transport": null, "subway": null, "railway": null, "station": null, "wikidata": null, "name:zh": null }, "geometry": { "type": "Point", "coordinates": [ 118.341343912950492, 24.546949146395601 ] } },
{ "type": "Feature", "properties": { "full_id": null, "osm_id": null, "osm_type": null, "name": "Xiang'an International Airport", "name:en": null, "public_transport": null, "subway": null, "railway": null, "station": null, "wikidata": null, "name:zh": null }, "geometry": { "type": "Point", "coordinates": [ 118.361483421805772, 24.558407148932201 ] } }
]
}
