{
"type": "FeatureCollection",
"name": "zhengzhou-line-12-phase-1-stops",
"crs": { "type": "name", "properties": { "name": "urn:ogc:def:crs:OGC:1.3:CRS84" } },
"features": [
{ "type": "Feature", "properties": { "full_id": null, "osm_id": null, "osm_type": null, "construction:railway": null, "name": "Shengfosi", "name:en": null, "name:zh": null, "network": null, "public_transport": null, "station": null, "subway": null }, "geometry": { "type": "Point", "coordinates": [ 113.737312761293339, 34.699655150050042 ] } },
{ "type": "Feature", "properties": { "full_id": null, "osm_id": null, "osm_type": null, "construction:railway": null, "name": "Lianghuxi", "name:en": null, "name:zh": null, "network": null, "public_transport": null, "station": null, "subway": null }, "geometry": { "type": "Point", "coordinates": [ 113.73871920492104, 34.711253667394281 ] } },
{ "type": "Feature", "properties": { "full_id": null, "osm_id": null, "osm_type": null, "construction:railway": null, "name": "Futadong", "name:en": null, "name:zh": null, "network": null, "public_transport": null, "station": null, "subway": null }, "geometry": { "type": "Point", "coordinates": [ 113.740892866343131, 34.721936898737368 ] } },
{ "type": "Feature", "properties": { "full_id": null, "osm_id": null, "osm_type": null, "construction:railway": null, "name": "Jingbeiwulu", "name:en": null, "name:zh": null, "network": null, "public_transport": null, "station": null, "subway": null }, "geometry": { "type": "Point", "coordinates": [ 113.740892866343259, 34.731840004630648 ] } },
{ "type": "Feature", "properties": { "full_id": null, "osm_id": null, "osm_type": null, "construction:railway": null, "name": "Xizhou", "name:en": null, "name:zh": null, "network": null, "public_transport": null, "station": null, "subway": null }, "geometry": { "type": "Point", "coordinates": [ 113.740844590651562, 34.748569640549967 ] } },
{ "type": "Feature", "properties": { "full_id": null, "osm_id": null, "osm_type": null, "construction:railway": null, "name": "Huanghenanlu", "name:en": null, "name:zh": null, "network": null, "public_transport": null, "station": null, "subway": null }, "geometry": { "type": "Point", "coordinates": [ 113.738274953019541, 34.763759649539871 ] } },
{ "type": "Feature", "properties": { "full_id": null, "osm_id": null, "osm_type": null, "construction:railway": null, "name": "Ertongyiyuan", "name:en": null, "name:zh": null, "network": null, "public_transport": null, "station": null, "subway": null }, "geometry": { "type": "Point", "coordinates": [ 113.745339358561594, 34.776709418331848 ] } },
{ "type": "Feature", "properties": { "full_id": null, "osm_id": null, "osm_type": null, "construction:railway": null, "name": "Jichengdongqiao", "name:en": null, "name:zh": null, "network": null, "public_transport": null, "station": null, "subway": null }, "geometry": { "type": "Point", "coordinates": [ 113.753238520016069, 34.781575330829845 ] } },
{ "type": "Feature", "properties": { "full_id": null, "osm_id": null, "osm_type": null, "construction:railway": null, "name": "Huzhuang", "name:en": null, "name:zh": null, "network": null, "public_transport": null, "station": null, "subway": null }, "geometry": { "type": "Point", "coordinates": [ 113.767904974275325, 34.793652960216036 ] } },
{ "type": "Feature", "properties": { "full_id": null, "osm_id": null, "osm_type": null, "construction:railway": null, "name": "Longzihuxi", "name:en": null, "name:zh": null, "network": null, "public_transport": null, "station": null, "subway": null }, "geometry": { "type": "Point", "coordinates": [ 113.787888502999664, 34.793808028995365 ] } },
{ "type": "Feature", "properties": { "full_id": null, "osm_id": null, "osm_type": null, "construction:railway": null, "name": "Longzihu", "name:en": null, "name:zh": null, "network": null, "public_transport": null, "station": null, "subway": null }, "geometry": { "type": "Point", "coordinates": [ 113.804280831548169, 34.79376638208462 ] } },
{ "type": "Feature", "properties": { "full_id": null, "osm_id": null, "osm_type": null, "construction:railway": null, "name": "Longzihudong", "name:en": null, "name:zh": null, "network": null, "public_transport": null, "station": null, "subway": null }, "geometry": { "type": "Point", "coordinates": [ 113.822908665234465, 34.795957138460324 ] } }
]
}
